     3.02           OBSERVATION DATA    M: Mixed            RINEX VERSION / TYPE
CHC                 CHC                 20191101 004712 UTC PGM / RUN BY / DATE 
D068                                                        MARKER NAME         
D068                                                        MARKER NUMBER       
CHC                 CHC                                     OBSERVER / AGENCY   
3206138             CHC I50             1.0.40              REC # / TYPE / VERS 
3206138             CHCI50                                  ANT # / TYPE        
 -2221411.5237  4994109.5736  3276118.2317                  APPROX POSITION XYZ 
        1.6567        0.0000        0.0000                  ANTENNA: DELTA H/E/N
HUACE ANT PHASECENTER                                       COMMENT             
G   12 C1C L1C D1C S1C C2P L2P D2P S2P C5I L5I D5I S5I      SYS / # / OBS TYPES 
R    8 C1C L1C D1C S1C C2P L2P D2P S2P                      SYS / # / OBS TYPES 
C   12 C1I L1I D1I S1I C7I L7I D7I S7I C6I L6I D6I S6I      SYS / # / OBS TYPES 
    10.000                                                  INTERVAL            
  2019    11     1     0    48    0.0000000     GPS         TIME OF FIRST OBS   
G                                                           SYS / PHASE SHIFT   
R                                                           SYS / PHASE SHIFT   
C                                                           SYS / PHASE SHIFT   
 C1C    0.000 C1P    0.000 C2C    0.000 C2P    0.000        GLONASS COD/PHS/BIS 
                                                            END OF HEADER       
> 2019 11  1  0 48  0.0000000  0 27
G02  21563760.267   113318324.361         776.360          49.250    21563756.814    88299999.300         605.294          41.500           0.000           0.000           0.000           0.000  
G05  21129895.412   111038347.444        1680.129          51.500    21129894.607    86523398.016        1309.203          43.000           0.000           0.000           0.000           0.000  
G06  21761616.468   114358063.861       -1195.524          48.500    21761617.891    89110199.927        -931.683          41.000    21761674.376    85397483.572        -892.754          54.000  
G09  23232158.455   122085819.654       -1830.742          40.250    23232158.832    95131835.664       -1427.398          27.750    23232215.549    91168203.378       -1367.214          48.750  
G12  22487526.211   118172746.163       -1611.780          48.500    22487525.130    92082665.451       -1256.360          37.250           0.000           0.000           0.000           0.000  
G17  23150112.317   121654661.140       -3094.313          38.250    23150113.682    94795892.639       -2412.380          28.750           0.000           0.000           0.000           0.000  
G19  22022108.195   115726960.830       -2834.730          45.250    22022106.819    90176879.686       -2208.925          37.750           0.000           0.000           0.000           0.000  
G25  23974674.772   125987757.179         471.643          44.500    23974676.744    98172310.235         367.536          32.250    23974731.393    94081999.247         351.996          47.500  
R02  20901005.977   111531770.953       -3191.165          49.250    20901023.264    86747002.557       -2481.169          45.000  
R03  19230241.799   102940989.141         645.926          53.250    19230260.410    80065287.621         503.169          51.500  
R17  20232058.007   108265822.558       -1014.164          53.250    20232075.392    84206828.688        -788.303          49.750  
R18  20248635.850   108088587.767        1957.073          53.000    20248653.011    84068975.663        1522.911          48.500  
C01  37442143.315   194971061.036         -87.792          43.500    37442152.413   150764044.548         -67.807          49.250    37442143.630   158429962.006         -71.281          44.250  
C02  37391713.033   194708449.247         -28.347          43.000    37391723.126   150560987.777         -21.939          49.750    37391714.073   158216578.204         -23.200          42.750  
C03  36666062.824   190929804.004         -70.876          47.250    36666074.430   147639093.056         -54.611          50.500    36666064.213   155146116.123         -57.541          44.750  
C04  38793641.279   202008659.136         -73.117          41.250    38793652.966   156205965.015         -56.522          48.500    38793642.575   164148598.278         -59.457          43.250  
C05  39396676.937   205148824.437         -32.749          35.250    39396689.295   158634156.570         -25.322          40.000    39396679.713   166700245.676         -26.375          35.000  
C06  37820677.521   196942187.528        1434.295          43.250    37820689.858   152288244.383        1109.123          48.750    37820677.407   160031664.173        1165.384          43.500  
C08  36655529.658   190874959.413         222.574          46.000    36655540.808   147596672.151         171.943          51.750    36655528.720   155101537.516         180.802          47.250  
C09  39792316.651   207209033.296        1470.197          37.750    39792331.262   160227225.967        1136.773          42.250    39792317.771   168374326.661        1194.552          38.000  
C13  36862511.186   191952767.919         255.899          48.750    36862528.797   148430128.984         197.819          49.500    36862517.492   155977368.468         208.057          47.500  
C16  38508638.398   200524585.482        1587.703          45.500    38508655.517   155058399.728        1227.561          47.250    38508641.409   162942666.501        1290.087          41.750  
C20  22874093.561   119111405.849        2081.084          51.500           0.000           0.000           0.000           0.000    22874090.283    96787765.726        1691.005          49.500  
C27  23256366.617   121101998.343       -1974.807          50.250           0.000           0.000           0.000           0.000    23256372.566    98405320.460       -1604.757          48.750  
C29  24628242.624   128245714.567        2698.938          44.000           0.000           0.000           0.000           0.000    24628244.556   104210162.028        2193.155          44.250  
C30  21619937.199   112580684.758         668.594          52.750           0.000           0.000           0.000           0.000    21619943.940    91481056.178         543.288          51.250  
C32  22007528.837   114598976.359        -897.423          51.750           0.000           0.000           0.000           0.000    22007535.863    93121087.198        -729.136          51.250  
> 2019 11  1  0 48 10.0000000  0 27
G02  21562174.969   113309993.385         775.108          48.750    21562171.654    88293507.640         604.207          41.500           0.000           0.000           0.000           0.000  
G05  21126593.635   111020996.460        1675.271          51.500    21126592.420    86509877.758        1305.708          42.250           0.000           0.000           0.000           0.000  
G06  21763783.880   114369454.027       -1197.470          48.750    21763785.374    89119075.377        -932.992          40.500    21763841.971    85405989.215        -894.242          54.000  
G09  23235538.765   122103582.081       -1836.617          38.750    23235538.942    95145676.517       -1431.602          27.750    23235595.767    91181467.517       -1371.472          49.000  
G12  22490489.667   118188318.741       -1617.390          48.500    22490488.256    92094799.936       -1260.243          35.750           0.000           0.000           0.000           0.000  
G17  23155895.181   121685047.869       -3097.871          39.750    23155896.258    94819570.587       -2413.835          29.000           0.000           0.000           0.000           0.000  
G19  22027397.802   115754757.654       -2839.330          45.500    22027396.361    90198539.530       -2212.218          38.000           0.000           0.000           0.000           0.000  
G25  23973674.496   125982500.134         465.084          43.750    23973676.281    98168213.782         362.238          30.000    23973731.021    94078073.544         347.312          46.250  
R02  20906879.786   111563116.495       -3194.849          49.750    20906897.216    86771382.451       -2485.336          45.750  
R03  19228933.422   102933980.698         638.754          53.250    19228952.051    80059836.638         496.138          52.000  
R17  20233846.967   108275399.924       -1017.988          53.250    20233865.113    84214277.767        -792.515          49.750  
R18  20244862.344   108068441.407        1955.350          53.250    20244878.870    84053306.290        1520.337          48.500  
C01  37442202.976   194971370.816         -88.113          43.750    37442211.778   150764284.095         -68.118          49.000    37442202.848   158430213.729         -71.534          44.250  
C02  37391658.306   194708164.386         -28.706          43.750    37391668.304   150560767.492         -22.128          49.500    37391659.558   158216346.747         -23.289          43.000  
C03  36666089.844   190929944.039         -71.225          47.250    36666101.417   147639201.349         -55.048          50.250    36666091.333   155146229.914         -57.935          45.000  
C04  38793671.848   202008821.416         -73.175          41.250    38793684.545   156206090.498         -56.757          48.750    38793674.099   164148730.140         -59.677          43.750  
C05  39396630.706   205148582.267         -33.256          35.000    39396643.086   158633969.280         -25.412          40.000    39396632.982   166700048.849         -26.886          34.750  
C06  37817815.231   196927281.790        1433.163          43.750    37817827.340   152276718.328        1108.171          49.000    37817814.637   160019552.042        1164.377          43.500  
C08  36654992.424   190872163.543         222.788          46.000    36655003.845   147594510.202         172.196          51.750    36654991.913   155099265.635         180.998          47.250  
C09  39789384.517   207193764.675        1470.180          37.000    39789399.673   160215419.319        1136.381          42.500    39789386.100   168361919.673        1194.078          38.000  
C13  36861909.910   191949636.764         256.344          48.750    36861927.747   148427707.782         198.139          49.500    36861915.951   155974824.152         208.356          47.250  
C16  38505480.999   200508143.935        1586.771          45.750    38505498.322   155045686.096        1226.941          47.250    38505484.125   162929306.425        1289.095          42.250  
C20  22869991.406   119090045.790        2076.972          51.250           0.000           0.000           0.000           0.000    22869988.292    96770408.923        1687.691          49.500  
C27  23260052.739   121121192.808       -1978.081          50.000           0.000           0.000           0.000           0.000    23260058.817    98420917.523       -1607.504          48.750  
C29  24622950.233   128218159.165        2698.146          43.750           0.000           0.000           0.000           0.000    24622953.524   104187771.025        2192.361          44.500  
C30  21618547.383   112573448.063         664.743          52.500           0.000           0.000           0.000           0.000    21618554.248    91475175.768         540.134          51.500  
C32  22009147.442   114607403.573        -902.103          52.000           0.000           0.000           0.000           0.000    22009154.395    93127934.998        -732.957          51.250  
> 2019 11  1  0 48 20.0000000  0 27
G02  21560591.462   113301672.732         775.182          48.500    21560588.388    88287024.009         604.260          41.000           0.000           0.000           0.000           0.000  
G05  21123300.620   111003691.770        1671.785          51.500    21123299.432    86496393.587        1302.838          42.250           0.000           0.000           0.000           0.000  
G06  21765954.568   114380862.177       -1198.053          48.000    21765956.660    89127964.836        -933.667          40.250    21766012.974    85414508.294        -894.643          53.750  
G09  23238929.433   122121401.360       -1840.970          37.500    23238930.172    95159561.666       -1434.655          27.500    23238987.111    91194774.103       -1374.654          49.000  
G12  22493462.954   118203943.450       -1621.436          48.500    22493461.649    92106975.039       -1263.133          35.500           0.000           0.000           0.000           0.000  
G17  23161684.497   121715467.939       -3099.911          40.000    23161683.928    94843274.513       -2415.779          28.750           0.000           0.000           0.000           0.000  
G19  22032695.332   115782596.248       -2842.253          45.250    22032694.138    90220231.928       -2214.389          37.750           0.000           0.000           0.000           0.000  
G25  23972685.418   125977304.512         460.206          43.000    23972687.354    98164165.282         358.846          30.750    23972743.756    94074193.701         343.543          48.500  
R02  20912763.391   111594513.533       -3199.646          48.750    20912780.964    86795802.356       -2488.603          45.250  
R03  19227640.051   102927059.354         630.441          53.000    19227659.065    80054453.358         490.241          51.750  
R17  20235646.269   108285030.171       -1022.814          52.500    20235664.594    84221767.946        -795.768          49.500  
R18  20241093.970   108048325.386        1952.939          53.000    20241110.388    84037660.495        1518.811          48.500  
C01  37442263.166   194971682.888         -86.894          44.000    37442271.888   150764525.415         -67.241          49.000    37442263.201   158430467.327         -70.661          44.000  
C02  37391603.718   194707881.916         -27.496          43.250    37391614.067   150560549.083         -21.358          50.000    37391605.240   158216117.219         -22.352          43.000  
C03  36666117.004   190930086.481         -70.221          47.250    36666128.861   147639311.495         -54.279          50.250    36666118.331   155146345.654         -57.108          44.750  
C04  38793703.332   202008986.026         -72.316          40.750    38793715.969   156206217.807         -55.918          48.500    38793705.558   164148863.903         -58.792          43.000  
C05  39396584.236   205148342.522         -31.911          35.750    39396596.761   158633783.892         -24.681          41.500    39396587.450   166699854.013         -25.626          36.750  
C06  37814954.535   196912386.523        1433.179          43.500    37814966.181   152265200.357        1108.294          48.500    37814954.491   160007448.402        1164.696          43.500  
C08  36654455.248   190869363.816         224.449          46.000    36654466.214   147592345.268         173.578          51.250    36654454.156   155096990.619         182.387          47.250  
C09  39786452.918   207178498.006        1470.999          38.000    39786467.934   160203614.143        1137.394          42.500    39786455.006   168349514.235        1195.379          38.500  
C13  36861307.633   191946500.787         258.140          48.500    36861325.625   148425282.852         199.523          49.500    36861313.913   155972275.921         209.611          47.250  
C16  38502325.406   200491711.485        1587.045          45.500    38502342.346   155032979.479        1227.141          47.000    38502328.513   162915953.694        1289.670          42.250  
C20  22865897.251   119068726.003        2074.335          51.000           0.000           0.000           0.000           0.000    22865894.123    96753084.863        1685.579          49.500  
C27  23263745.327   121140421.441       -1980.318          49.500           0.000           0.000           0.000           0.000    23263751.952    98436542.375       -1609.333          49.000  
C29  24617659.720   128190611.445        2698.608          43.000           0.000           0.000           0.000           0.000    24617663.860   104165386.247        2192.791          45.250  
C30  21617165.166   112566249.843         662.121          52.750           0.000           0.000           0.000           0.000    21617171.793    91469326.621         538.053          51.000  
C32  22010774.767   114615877.720        -905.543          52.000           0.000           0.000           0.000           0.000    22010781.887    93134820.939        -735.872          51.250  
> 2019 11  1  0 48 30.0000000  0 27
G02  21559009.964   113293361.585         774.743          48.750    21559006.687    88280547.795         603.887          41.750           0.000           0.000           0.000           0.000  
G05  21120016.226   110986432.531        1667.737          51.000    21120014.527    86482944.829        1299.617          40.750           0.000           0.000           0.000           0.000  
G06  21768128.716   114392287.554       -1199.321          47.500    21768130.673    89136867.731        -934.221          40.000    21768187.542    85423040.210        -895.535          54.000  
G09  23242330.788   122139276.614       -1846.015          37.750    23242332.433    95173490.422       -1437.796          28.750    23242388.799    91208122.504       -1378.552          49.000  
G12  22496446.238   118219619.378       -1626.037          48.500    22496444.525    92119190.030       -1266.934          36.250           0.000           0.000           0.000           0.000  
G17  23167479.829   121745920.427       -3102.712          39.750    23167478.714    94867003.686       -2417.634          27.500           0.000           0.000           0.000           0.000  
G19  22038000.519   115810475.739       -2845.956          45.250    22037999.365    90241956.200       -2217.754          37.500           0.000           0.000           0.000           0.000  
G25  23971707.780   125972169.503         454.699          45.000    23971710.542    98160163.947         354.445          31.750    23971766.898    94070359.076         339.624          47.500  
R02  20918656.113   111625961.384       -3204.021          48.250    20918674.295    86820261.796       -2491.868          45.000  
R03  19226362.304   102920224.157         622.239          53.000    19226380.584    80049137.106         483.976          52.250  
R17  20237455.833   108294712.556       -1027.737          52.250    20237474.015    84229298.689        -799.365          49.750  
R18  20237331.257   108028238.871        1950.221          53.250    20237348.105    84022037.629        1517.049          48.250  
C01  37442323.532   194971996.464         -86.846          43.750    37442332.259   150764767.881         -67.058          49.000    37442323.557   158430722.128         -70.463          44.250  
C02  37391550.208   194707601.095         -27.532          43.500    37391560.709   150560331.914         -21.174          50.250    37391551.315   158215889.020         -22.251          43.250  
C03  36666144.621   190930230.558         -69.971          47.000    36666156.759   147639422.892         -54.140          50.000    36666146.138   155146462.722         -56.792          45.000  
C04  38793735.820   202009152.230         -72.222          41.000    38793747.998   156206346.316         -55.730          48.250    38793737.188   164148998.953         -58.549          43.250  
C05  39396538.527   205148104.391         -31.582          35.750    39396551.805   158633599.756         -24.699          40.250    39396541.673   166699660.499         -25.185          36.500  
C06  37812095.866   196897500.969        1432.697          43.500    37812108.454   152253689.912        1107.833          48.750    37812096.004   159995352.692        1164.082          43.250  
C08  36653916.604   190866559.313         225.155          46.250    36653927.924   147590176.637         174.192          51.500    36653915.326   155094711.731         183.110          47.250  
C09  39783521.342   207163232.475        1471.156          38.250    39783536.523   160191809.881        1137.300          42.750    39783523.622   168337109.768        1195.332          39.000  
C13  36860704.390   191943358.992         259.012          48.750    36860722.132   148422853.419         200.341          49.000    36860710.430   155969722.961         210.573          47.250  
C16  38499171.525   200475287.339        1586.492          45.500    38499188.642   155020279.282        1226.886          47.000    38499174.120   162902607.731        1289.386          42.500  
C20  22861810.310   119047445.770        2070.698          51.000           0.000           0.000           0.000           0.000    22861807.354    96735792.932        1682.567          49.500  
C27  23267444.080   121159683.431       -1983.230          49.500           0.000           0.000           0.000           0.000    23267451.030    98452194.303       -1611.521          48.750  
C29  24612370.463   128163070.598        2698.317          43.500           0.000           0.000           0.000           0.000    24612374.931   104143007.063        2192.653          45.250  
C30  21615789.918   112559089.329         658.873          52.500           0.000           0.000           0.000           0.000    21615796.636    91463508.119         535.412          50.750  
C32  22012411.240   114624397.935        -909.638          52.250           0.000           0.000           0.000           0.000    22012418.308    93141744.314        -739.176          51.500  
> 2019 11  1  0 48 40.0000000  0 27
G02  21557430.341   113285060.196         774.189          48.750    21557426.867    88274079.162         603.294          41.750           0.000           0.000           0.000           0.000  
G05  21116740.511   110969218.950        1663.620          50.750    21116739.175    86469531.643        1296.068          41.000           0.000           0.000           0.000           0.000  
G06  21770306.191   114403730.305       -1200.418          47.750    21770308.131    89145784.145        -936.092          40.250    21770364.986    85431585.130        -896.502          53.750  
G09  23245743.015   122157207.981       -1851.318          37.250    23245744.808    95187462.930       -1443.006          30.000    23245801.444    91221512.799       -1382.483          49.000  
G12  22499439.442   118235346.687       -1630.706          48.750    22499437.322    92131445.080       -1270.880          36.000           0.000           0.000           0.000           0.000  
G17  23173280.944   121776405.370       -3105.429          40.500    23173279.210    94890758.210       -2419.852          28.250           0.000           0.000           0.000           0.000  
G19  22043313.377   115838396.254       -2849.483          45.250    22043312.104    90263712.429       -2220.625          38.000           0.000           0.000           0.000           0.000  
G25  23970741.976   125967095.296         449.063          44.250    23970744.017    98156210.006         349.637          32.000    23970801.003    94066569.935         335.245          46.750  
R02  20924558.722   111657459.665       -3208.622          48.500    20924577.324    86844760.472       -2495.577          45.250  
R03  19225101.634   102913475.450         614.549          53.250    19225120.424    80043888.128         477.583          52.250  
R17  20239274.738   108304447.156       -1031.841          51.500    20239293.323    84236870.044        -803.008          50.000  
R18  20233574.116   108008182.137        1948.121          53.250    20233591.018    84006437.965        1514.912          48.750  
C01  37442384.178   194972311.685         -86.450          44.250    37442393.070   150765011.641         -66.973          49.250    37442384.126   158430978.268         -70.217          44.000  
C02  37391496.613   194707322.058         -27.101          43.500    37391506.958   150560116.151         -20.957          50.000    37391497.668   158215662.270         -22.082          42.500  
C03  36666172.356   190930376.423         -69.659          47.250    36666184.554   147639535.691         -53.811          50.500    36666174.315   155146581.245         -56.531          44.750  
C04  38793768.143   202009320.148         -71.965          41.500    38793780.183   156206476.139         -55.574          48.000    38793769.757   164149135.410         -58.512          43.500  
C05  39396493.046   205147868.081         -31.559          36.000    39396505.946   158633417.034         -24.275          40.750    39396496.293   166699468.513         -25.686          37.000  
C06  37809239.284   196882625.322        1432.229          43.500    37809252.113   152242187.129        1107.402          49.000    37809239.031   159983265.012        1163.778          43.500  
C08  36653377.179   190863750.257         226.250          47.000    36653388.532   147588004.498         174.896          51.250    36653375.678   155092429.157         183.778          47.000  
C09  39780590.012   207147968.234        1471.721          38.250    39780606.226   160180006.598        1137.856          43.250    39780591.875   168324706.348        1195.422          38.250  
C13  36860099.863   191940211.686         260.101          48.750    36860118.042   148420419.723         200.952          49.500    36860105.937   155967165.500         211.477          47.250  
C16  38496018.743   200458871.690        1586.376          45.500    38496036.045   155007585.671        1226.370          47.000    38496021.839   162889268.679        1288.924          42.500  
C20  22857731.245   119026205.269        2067.049          50.750           0.000           0.000           0.000           0.000    22857728.338    96718533.285        1679.730          49.750  
C27  23271149.503   121178978.957       -1986.309          49.000           0.000           0.000           0.000           0.000    23271156.299    98467873.490       -1613.957          49.250  
C29  24607084.099   128135536.960        2698.077          43.750           0.000           0.000           0.000           0.000    24607087.320   104120633.709        2192.497          45.750  
C30  21614422.011   112551966.788         655.435          52.500           0.000           0.000           0.000           0.000    21614429.007    91457720.469         532.592          51.000  
C32  22014056.079   114632964.385        -913.897          52.250           0.000           0.000           0.000           0.000    22014063.067    93148705.255        -742.636          51.250  
> 2019 11  1  0 48 50.0000000  0 27
G02  21555852.373   113276767.866         773.433          49.000    21555849.085    88267617.611         602.438          41.750           0.000           0.000           0.000           0.000  
G05  21113473.314   110952050.358        1659.349          50.750    21113471.880    86456153.515        1292.680          40.750           0.000           0.000           0.000           0.000  
G06  21772486.772   114415189.855       -1202.080          47.750    21772488.901    89154713.664        -936.530          39.750    21772545.724    85440142.579        -897.811          53.750  
G09  23249165.877   122175194.775       -1856.666          38.000    23249167.431    95201478.581       -1446.286          29.500    23249223.991    91234944.505       -1386.654          49.250  
G12  22502442.018   118251124.616       -1635.593          48.750    22502439.895    92143739.560       -1274.690          36.750           0.000           0.000           0.000           0.000  
G17  23179088.320   121806922.174       -3108.613          41.250    23179085.932    94914537.495       -2422.565          27.500           0.000           0.000           0.000           0.000  
G19  22048634.082   115866357.151       -2853.499          44.750    22048632.548    90285500.127       -2223.310          37.250           0.000           0.000           0.000           0.000  
G25  23969787.701   125962081.284         443.126          44.000    23969788.635    98152303.010         344.527          30.250    23969846.616    94062825.706         330.835          47.500  
R02  20930470.978   111689007.841       -3213.517          48.500    20930489.303    86869297.912       -2499.317          45.000  
R03  19223858.210   102906812.528         605.762          53.000    19223876.857    80038705.838         471.063          52.000  
R17  20241103.416   108314233.533       -1037.561          51.000    20241122.949    84244481.641        -806.994          50.750  
R18  20229821.762   107988154.698        1945.091          52.250    20229839.299    83990861.040        1512.864          48.750  
C01  37442444.894   194972627.918         -86.662          44.250    37442453.479   150765256.173         -67.151          49.250    37442445.197   158431235.244         -70.556          44.250  
C02  37391443.280   194707044.118         -27.167          43.750    37391453.508   150559901.213         -21.002          50.000    37391444.654   158215436.417         -22.040          43.000  
C03  36666200.697   190930523.459         -69.658          47.250    36666212.719   147639649.401         -53.904          50.000    36666202.150   155146700.731         -56.570          44.750  
C04  38793800.399   202009489.199         -71.996          40.500    38793812.564   156206606.863         -55.596          48.000    38793802.004   164149272.763         -58.460          43.250  
C05  39396447.829   205147632.969         -31.585          36.500    39396461.364   158633235.199         -24.353          41.000    39396451.067   166699277.446         -25.410          36.750  
C06  37806383.922   196867758.994        1431.187          43.250    37806396.425   152230691.536        1106.605          49.250    37806383.837   159971184.896        1162.839          43.250  
C08  36652836.792   190860936.007         226.856          46.750    36652847.423   147585828.373         175.246          51.000    36652835.264   155090142.367         184.243          46.750  
C09  39777658.852   207132704.759        1471.586          39.000    39777674.809   160168203.918        1137.649          43.250    39777660.788   168312303.489        1196.017          38.250  
C13  36859494.242   191937058.347         260.802          48.500    36859512.352   148417981.354         201.578          49.250    36859500.394   155964603.170         211.868          47.500  
C16  38492867.449   200442463.955        1585.392          45.500    38492885.300   154994898.163        1225.829          47.250    38492870.701   162875936.052        1288.281          42.000  
C20  22853659.669   119005003.949        2063.139          50.750           0.000           0.000           0.000           0.000    22853657.138    96701305.478        1676.457          49.500  
C27  23274861.359   121198307.376       -1989.416          49.000           0.000           0.000           0.000           0.000    23274867.981    98483579.419       -1616.587          48.750  
C29  24601797.709   128108009.840        2697.574          43.750           0.000           0.000           0.000           0.000    24601801.162   104098265.704        2191.798          45.500  
C30  21613061.372   112544881.624         651.787          52.250           0.000           0.000           0.000           0.000    21613068.238    91451963.195         529.460          50.750  
C32  22015709.792   114641576.359        -918.429          52.000           0.000           0.000           0.000           0.000    22015716.790    93155703.187        -746.365          51.250  
> 2019 11  1  0 49  0.0000000  0 27
G02  21554275.511   113268481.806         773.209          49.000    21554272.212    88261160.942         602.141          41.750           0.000           0.000           0.000           0.000  
G05  21110214.187   110934924.003        1655.521          50.250    21110212.808    86442808.308        1289.789          41.000           0.000           0.000           0.000           0.000  
G06  21774670.293   114426663.340       -1203.049          47.750    21774672.298    89163654.033        -937.484          40.500    21774728.965    85448710.431        -898.453          53.750  
G09  23252598.855   122193234.014       -1861.453          39.000    23252600.550    95215535.153       -1450.463          29.750    23252657.168    91248415.378       -1390.156          50.000  
G12  22505453.461   118266950.304       -1639.957          48.250    22505451.810    92156071.254       -1278.356          36.000           0.000           0.000           0.000           0.000  
G17  23184902.052   121837467.862       -3111.057          41.750    23184899.978    94938339.380       -2424.167          25.750           0.000           0.000           0.000           0.000  
G19  22053961.893   115894355.451       -2856.620          44.750    22053960.359    90307316.971       -2225.934          36.750           0.000           0.000           0.000           0.000  
G25  23968844.480   125957124.544         437.923          43.250    23968846.494    98148440.581         340.876          29.750    23968902.359    94059124.242         326.832          46.750  
R02  20936392.236   111720602.986       -3218.110          49.750    20936410.328    86893871.894       -2502.690          44.750  
R03  19222629.392   102900232.579         597.475          53.250    19222647.824    80033588.095         464.953          52.250  
R17  20242941.695   108324068.612       -1042.518          51.250    20242961.246    84252131.126        -810.445          50.500  
R18  20226074.909   107968153.843        1942.465          53.000    20226092.499    83975304.806        1511.159          48.750  
C01  37442505.188   194972942.438         -85.955          44.500    37442513.879   150765499.362         -66.377          49.000    37442505.300   158431490.809         -69.784          44.000  
C02  37391389.286   194706764.482         -26.568          43.500    37391399.412   150559684.980         -20.453          49.750    37391390.464   158215209.157         -21.397          43.000  
C03  36666228.728   190930668.834         -68.934          47.250    36666240.685   147639761.804         -53.386          50.250    36666230.278   155146818.861         -56.000          44.750  
C04  38793832.549   202009656.474         -70.967          41.000    38793844.394   156206736.214         -54.961          48.250    38793834.325   164149408.684         -57.742          43.500  
C05  39396402.543   205147396.118         -30.533          36.500    39396415.140   158633052.069         -23.733          41.500    39396405.116   166699085.031         -24.810          36.250  
C06  37803530.601   196852899.125        1431.070          44.000    37803543.086   152219200.939        1106.712          49.000    37803530.198   159959110.037        1162.703          43.500  
C08  36652294.452   190858113.785         228.166          46.750    36652305.879   147583646.034         176.398          51.250    36652293.269   155087849.069         185.351          46.750  
C09  39774727.761   207117439.188        1472.035          39.250    39774742.246   160156399.605        1138.570          42.500    39774728.679   168299898.975        1196.178          37.500  
C13  36858886.871   191933895.934         262.206          48.750    36858905.006   148415535.973         202.910          48.750    36858893.121   155962033.448         212.891          47.250  
C16  38489717.720   200426061.270        1585.469          45.000    38489735.333   154982214.572        1226.115          47.250    38489720.713   162862607.520        1288.321          42.000  
C20  22849595.455   118983838.940        2060.112          51.250           0.000           0.000           0.000           0.000    22849592.812    96684107.183        1673.955          49.750  
C27  23278578.825   121217665.822       -1991.865          49.000           0.000           0.000           0.000           0.000    23278584.893    98499309.734       -1618.534          48.250  
C29  24596511.344   128080486.517        2697.805          43.000           0.000           0.000           0.000           0.000    24596515.615   104075900.759        2192.070          44.500  
C30  21611707.162   112537831.035         648.813          52.250           0.000           0.000           0.000           0.000    21611714.334    91446234.005         527.162          51.000  
C32  22017372.052   114650230.962        -922.128          52.500           0.000           0.000           0.000           0.000    22017378.838    93162735.757        -749.344          51.250  
> 2019 11  1  0 49 10.0000000  0 27
G02  21552701.168   113260208.511         772.069          48.750    21552698.078    88254714.219         601.271          41.500           0.000           0.000           0.000           0.000  
G05  21106964.191   110917846.342        1650.696          50.500    21106963.145    86429501.035        1286.383          40.750           0.000           0.000           0.000           0.000  
G06  21776857.349   114438157.298       -1205.132          47.500    21776859.505    89172610.367        -938.722          40.000    21776916.358    85457293.570        -899.779          53.750  
G09  23256042.488   122211332.225       -1867.239          37.750    23256044.360    95229637.655       -1454.511          29.500    23256101.040    91261930.259       -1394.331          49.500  
G12  22508475.187   118282830.114       -1645.211          48.500    22508473.258    92168445.138       -1282.265          36.250           0.000           0.000           0.000           0.000  
G17  23190721.184   121868048.927       -3114.648          41.000    23190719.301    94962168.742       -2427.569          26.750           0.000           0.000           0.000           0.000  
G19  22059298.641   115922397.672       -2861.106          45.250    22059296.623    90329168.044       -2229.684          37.000           0.000           0.000           0.000           0.000  
G25  23967913.286   125952231.597         431.529          43.000    23967915.560    98144627.920         335.749          28.250    23967971.194    94055470.412         322.278          48.000  
R02  20942323.430   111752251.439       -3223.764          49.250    20942341.155    86918487.373       -2506.844          45.000  
R03  19221415.721   102893741.965         588.444          53.750    19221434.171    80028539.862         457.967          51.750  
R17  20244790.090   108333959.262       -1047.908          51.250    20244809.802    84259823.846        -814.699          50.750  
R18  20222333.615   107948186.244        1939.122          52.750    20222351.653    83959774.483        1508.581          49.250  
C01  37442566.122   194973261.590         -86.140          44.000    37442575.215   150765746.147         -66.602          49.000    37442566.299   158431750.151         -70.150          44.250  
C02  37391336.549   194706489.601         -26.720          43.500    37391346.874   150559472.434         -20.726          49.750    37391337.785   158214985.814         -21.672          43.000  
C03  36666257.625   190930818.987         -69.251          47.250    36666269.443   147639877.903         -53.525          50.250    36666259.158   155146940.869         -56.168          44.750  
C04  38793865.779   202009828.488         -71.438          41.250    38793877.646   156206869.214         -55.319          48.000    38793867.192   164149548.458         -57.906          43.500  
C05  39396358.222   205147164.107         -30.981          35.250    39396370.429   158632872.655         -24.215          40.500    39396360.632   166698896.479         -25.188          36.000  
C06  37800679.742   196838052.192        1430.035          44.000    37800691.947   152207720.349        1105.830          49.000    37800679.107   159947045.669        1162.125          43.500  
C08  36651752.656   190855290.135         228.331          47.000    36651763.520   147581462.599         176.585          51.250    36651750.728   155085554.618         185.612          46.750  
C09  39771796.336   207102177.973        1471.900          39.250    39771811.535   160144598.657        1138.261          42.250    39771797.451   168287497.995        1195.937          38.000  
C13  36858279.255   191930731.021         262.621          49.000    36858297.110   148413088.653         203.021          49.000    36858285.200   155959461.688         213.393          47.500  
C16  38486569.598   200409670.133        1584.479          45.250    38486587.415   154969539.908        1225.349          46.750    38486573.087   162849288.402        1287.675          42.250  
C20  22845539.095   118962716.789        2055.999          51.250           0.000           0.000           0.000           0.000    22845536.568    96666943.715        1670.756          49.750  
C27  23282303.489   121237060.750       -1995.355          48.750           0.000           0.000           0.000           0.000    23282309.028    98515069.706       -1621.404          48.000  
C29  24591227.694   128052973.516        2696.892          43.500           0.000           0.000           0.000           0.000    24591232.223   104053544.209        2191.286          44.250  
C30  21610361.138   112530821.547         644.940          52.250           0.000           0.000           0.000           0.000    21610368.422    91440538.220         524.107          51.250  
C32  22019043.550   114658934.575        -926.733          52.250           0.000           0.000           0.000           0.000    22019050.239    93169808.167        -753.106          51.250  
> 2019 11  1  0 49 20.0000000  0 27
G02  21551128.779   113251945.261         771.932          49.250    21551125.676    88248275.317         601.423          41.500           0.000           0.000           0.000           0.000  
G05  21103723.369   110900814.613        1647.078          50.750    21103722.101    86416229.569        1283.641          41.000           0.000           0.000           0.000           0.000  
G06  21779048.038   114449668.929       -1205.895          48.000    21779050.240    89181580.454        -939.583          40.500    21779106.731    85465889.915        -900.431          53.750  
G09  23259497.320   122229486.503       -1871.958          38.750    23259498.628    95243783.852       -1458.249          29.750    23259555.708    91275487.048       -1397.873          49.750  
G12  22511506.597   118298761.192       -1649.604          48.250    22511505.228    92180858.956       -1285.040          36.000           0.000           0.000           0.000           0.000  
G17  23196547.123   121898662.487       -3116.784          41.000    23196544.340    94986023.453       -2428.178          27.250           0.000           0.000           0.000           0.000  
G19  22064642.531   115950480.879       -2864.153          45.000    22064640.768    90351051.048       -2231.718          37.750           0.000           0.000           0.000           0.000  
G25  23966993.650   125947399.660         426.191          43.500    23966996.491    98140862.722         332.632          30.250    23967051.937    94051862.127         318.495          47.000  
R02  20948264.009   111783950.089       -3227.186          48.750    20948281.645    86943141.885       -2510.015          45.000  
R03  19220218.570   102887338.088         581.026          53.750    19220237.441    80023559.086         452.008          51.500  
R17  20246647.861   108343902.531       -1052.006          51.750    20246667.520    84267557.510        -818.143          51.000  
R18  20218598.224   107928249.111        1937.259          53.000    20218616.817    83944267.831        1506.921          49.750  
C01  37442627.877   194973582.574         -85.401          44.000    37442636.887   150765994.360         -65.988          49.000    37442628.148   158432010.960         -69.251          44.250  
C02  37391284.125   194706216.736         -26.017          43.500    37391294.448   150559261.436         -20.113          50.000    37391285.625   158214764.101         -21.203          43.000  
C03  36666286.793   190930971.132         -68.566          47.250    36666298.625   147639995.546         -52.845          50.000    36666288.402   155147064.497         -55.616          45.250  
C04  38793898.794   202010002.418         -70.478          40.250    38793911.066   156207003.710         -54.554          48.000    38793900.735   164149689.786         -57.325          43.500  
C05  39396313.699   205146934.081         -29.523          35.500    39396326.075   158632694.785         -23.094          40.250    39396317.030   166698709.583         -24.867          36.250  
C06  37797830.922   196823215.471        1429.925          43.750    37797842.405   152196247.653        1105.768          49.000    37797829.740   159934989.627        1161.894          43.500  
C08  36651209.479   190852462.166         229.784          47.250    36651220.432   147579275.829         177.744          51.250    36651207.612   155083256.653         186.756          47.000  
C09  39768866.079   207086918.404        1472.785          39.500    39768881.188   160132798.994        1138.837          42.250    39768866.819   168275098.322        1197.022          38.250  
C13  36857670.257   191927560.768         264.126          49.000    36857688.057   148410637.209         204.291          49.000    36857676.249   155956885.589         214.622          47.500  
C16  38483423.321   200393287.792        1584.661          45.000    38483440.843   154956872.053        1225.349          46.750    38483426.709   162835976.399        1287.695          42.500  
C20  22841490.653   118941634.704        2052.971          51.500           0.000           0.000           0.000           0.000    22841488.280    96649812.788        1668.276          50.250  
C27  23286034.765   121256489.362       -1997.686          49.500           0.000           0.000           0.000           0.000    23286039.968    98530857.041       -1623.380          48.250  
C29  24585945.846   128025468.102        2697.009          43.250           0.000           0.000           0.000           0.000    24585949.894   104031193.819        2191.526          45.250  
C30  21609022.481   112523850.447         641.955          52.250           0.000           0.000           0.000           0.000    21609029.841    91434873.619         521.672          51.250  
C32  22020723.706   114667684.391        -930.481          52.000           0.000           0.000           0.000           0.000    22020730.572    93176918.111        -756.100          51.250  
> 2019 11  1  0 49 30.0000000  0 27
G02  21549557.845   113243690.246         772.002          49.000    21549554.673    88241842.838         601.575          41.750           0.000           0.000           0.000           0.000  
G05  21100490.835   110883826.931        1643.508          50.750    21100489.529    86402992.410        1280.412          41.750           0.000           0.000           0.000           0.000  
G06  21781241.680   114461196.382       -1206.655          47.750    21781243.584    89190562.879        -940.596          40.500    21781299.934    85474498.067        -900.975          53.750  
G09  23262962.221   122247694.895       -1876.486          39.250    23262963.947    95257972.225       -1462.519          30.000    23263020.007    91289084.240       -1401.404          50.000  
G12  22514547.415   118314741.487       -1653.626          48.000    22514545.868    92193311.126       -1288.876          36.750           0.000           0.000           0.000           0.000  
G17  23202378.891   121929306.586       -3119.135          41.750    23202374.758    95009901.897       -2430.588          27.500           0.000           0.000           0.000           0.000  
G19  22069994.405   115978603.153       -2867.332          45.750    22069992.458    90372964.486       -2234.333          37.500           0.000           0.000           0.000           0.000  
G25  23966085.255   125942626.787         421.300          43.750    23966087.522    98137143.608         328.386          29.000    23966144.832    94048297.981         314.634          47.750  
R02  20954213.185   111815697.039       -3231.059          49.000    20954230.775    86967833.974       -2513.131          44.750  
R03  19219039.020   102881018.872         572.908          53.500    19219057.309    80018644.116         446.063          51.500  
R17  20248515.338   108353896.665       -1056.784          52.500    20248534.925    84275330.700        -821.367          50.750  
R18  20214868.268   107908340.563        1934.940          53.250    20214887.255    83928783.393        1505.278          49.250  
C01  37442689.647   194973903.583         -84.738          44.250    37442698.498   150766242.593         -65.630          49.500    37442689.724   158432271.816         -68.875          44.500  
C02  37391232.061   194705943.966         -25.254          43.500    37391242.131   150559050.504         -19.599          49.750    37391233.146   158214542.471         -20.732          43.000  
C03  36666316.021   190931123.408         -67.705          47.250    36666327.844   147640113.311         -52.467          50.250    36666317.527   155147188.243         -55.180          45.000  
C04  38793931.973   202010176.429         -70.061          40.750    38793944.663   156207138.251         -54.073          48.250    38793934.221   164149831.179         -56.807          43.500  
C05  39396269.461   205146704.253         -30.190          35.250    39396282.167   158632517.031         -23.133          40.250    39396272.852   166698522.805         -24.606          36.250  
C06  37794982.882   196808387.038        1429.786          43.750    37794994.788   152184781.384        1105.652          49.000    37794981.885   159922940.326        1161.860          43.250  
C08  36650665.145   190849628.040         231.099          47.250    36650676.009   147577084.316         178.659          51.250    36650663.683   155080953.707         187.763          47.000  
C09  39765935.913   207071658.562        1473.647          39.750    39765950.111   160120999.130        1139.335          42.000    39765936.368   168262698.505        1197.081          38.500  
C13  36857060.197   191924383.371         265.523          49.000    36857078.287   148408180.249         205.265          49.250    36857065.883   155954303.706         215.634          47.500  
C16  38480278.491   200376912.374        1584.753          45.000    38480296.426   154944209.536        1225.297          46.500    38480282.341   162822670.046        1287.633          42.250  
C20  22837449.253   118920590.872        2049.818          51.750           0.000           0.000           0.000           0.000    22837447.267    96632712.965        1665.579          50.250  
C27  23289771.665   121275949.786       -2000.400          49.500           0.000           0.000           0.000           0.000    23289777.011    98546670.232       -1625.486          48.250  
C29  24580664.707   127997968.467        2697.127          43.000           0.000           0.000           0.000           0.000    24580668.531   104008848.115        2191.537          45.250  
C30  21607690.672   112516915.902         638.841          52.250           0.000           0.000           0.000           0.000    21607698.159    91429238.734         519.138          51.500  
C32  22022412.764   114676478.485        -934.223          52.500           0.000           0.000           0.000           0.000    22022419.211    93184064.041        -759.204          51.250  
> 2019 11  1  0 49 40.0000000  0 27
G02  21547988.212   113235442.437         771.364          48.750    21547985.083    88235415.991         600.476          41.750           0.000           0.000           0.000           0.000  
G05  21097266.362   110866882.171        1639.390          51.250    21097264.616    86389788.715        1277.027          42.250           0.000           0.000           0.000           0.000  
G06  21783438.039   114472738.684       -1207.984          47.500    21783440.366    89199556.876        -941.663          40.500    21783496.435    85483117.322        -902.128          53.250  
G09  23266437.332   122265956.394       -1881.886          40.500    23266438.325    95272201.969       -1467.191          30.250    23266494.961    91302721.073       -1405.325          49.750  
G12  22517597.305   118330769.920       -1658.338          47.000    22517596.400    92205800.800       -1292.723          36.000           0.000           0.000           0.000           0.000  
G17  23208215.618   121959980.159       -3121.977          41.000    23208212.338    95033803.431       -2433.374          27.750           0.000           0.000           0.000           0.000  
G19  22075353.227   116006763.428       -2870.960          46.000    22075351.076    90394907.553       -2237.493          38.000           0.000           0.000           0.000           0.000  
G25  23965188.253   125937912.054         415.609          42.750    23965189.098    98133469.799         323.327          28.750    23965248.402    94044777.212         310.265          48.000  
R02  20960171.629   111847491.223       -3236.302          49.750    20960188.557    86992562.762       -2516.607          44.000  
R03  19217874.997   102874783.439         564.682          53.000    19217892.802    80013794.341         439.685          51.250  
R17  20250392.093   108363940.518       -1061.350          52.250    20250412.056    84283142.589        -825.225          50.500  
R18  20211144.153   107888459.839        1932.047          52.750    20211162.558    83913320.602        1503.206          49.000  
C01  37442750.943   194974223.675         -84.611          44.250    37442760.130   150766490.093         -65.450          49.250    37442751.110   158432531.904         -68.692          44.000  
C02  37391179.259   194705670.375         -25.323          43.500    37391189.763   150558838.944         -19.489          50.000    37391180.638   158214320.122         -20.581          42.750  
C03  36666345.130   190931274.870         -67.739          47.250    36666356.984   147640230.417         -52.341          50.250    36666346.482   155147311.312         -55.146          44.750  
C04  38793965.650   202010349.543         -69.765          40.750    38793977.831   156207272.116         -54.112          48.250    38793967.453   164149971.845         -56.897          43.250  
C05  39396225.124   205146473.572         -29.657          35.000    39396238.105   158632338.648         -22.787          40.500    39396228.318   166698335.313         -23.937          36.500  
C06  37792136.517   196793566.041        1428.851          43.750    37792148.720   152173320.859        1104.888          49.000    37792135.771   159910897.048        1161.154          43.750  
C08  36650119.743   190846786.872         231.712          47.000    36650130.488   147574887.337         179.193          51.250    36650117.619   155078645.018         188.191          47.000  
C09  39763005.075   207056397.596        1473.423          39.500    39763019.527   160109198.353        1139.499          41.500    39763005.403   168250297.679        1197.259          37.750  
C13  36856448.423   191921197.853         266.113          48.750    36856466.721   148405716.994         205.896          49.500    36856453.936   155951715.189         216.399          47.500  
C16  38477135.333   200360542.970        1583.857          44.750    38477152.824   154931551.669        1224.817          46.500    38477138.404   162809368.570        1286.948          42.250  
C20  22833415.478   118899584.365        2046.064          52.000           0.000           0.000           0.000           0.000    22833413.266    96615643.443        1662.616          50.000  
C27  23293514.645   121295441.050       -2003.382          49.250           0.000           0.000           0.000           0.000    23293520.278    98562508.467       -1627.916          48.000  
C29  24575384.382   127970473.711        2696.550          42.500           0.000           0.000           0.000           0.000    24575388.444   103986506.384        2191.126          44.750  
C30  21606365.833   112510016.982         635.458          52.500           0.000           0.000           0.000           0.000    21606373.159    91423632.790         516.300          51.250  
C32  22024110.122   114685315.855        -938.566          52.750           0.000           0.000           0.000           0.000    22024116.371    93191245.117        -762.746          51.500  
> 2019 11  1  0 49 50.0000000  0 27
G02  21546420.011   113227200.591         771.240          48.750    21546416.825    88228993.767         601.127          42.000           0.000           0.000           0.000           0.000  
G05  21094049.874   110849979.247        1635.493          51.250    21094048.304    86376617.596        1274.587          42.250           0.000           0.000           0.000           0.000  
G06  21785637.051   114484294.558       -1208.812          47.250    21785639.513    89208561.453        -941.944          40.000    21785695.422    85491746.706        -902.529          53.500  
G09  23269922.757   122284269.656       -1886.569          41.250    23269923.685    95286472.026       -1470.123          30.500    23269979.665    91316396.542       -1408.543          49.500  
G12  22520656.449   118346845.112       -1662.456          46.750    22520655.218    92218326.913       -1295.460          36.500           0.000           0.000           0.000           0.000  
G17  23214057.609   121990681.852       -3124.246          41.000    23214054.303    95057726.835       -2435.381          27.500           0.000           0.000           0.000           0.000  
G19  22080719.036   116034960.474       -2874.147          46.000    22080716.481    90416879.258       -2239.716          38.250           0.000           0.000           0.000           0.000  
G25  23964302.126   125933254.135         410.276          42.000    23964302.986    98129840.261         319.515          29.750    23964362.085    94041298.869         306.696          48.250  
R02  20966138.327   111879330.959       -3240.255          50.250    20966155.551    87017327.013       -2520.029          44.500  
R03  19216724.966   102868630.420         557.464          52.750    19216743.416    80009008.669         433.619          51.500  
R17  20252278.400   108374032.986       -1065.298          52.500    20252298.068    84290992.282        -828.549          50.250  
R18  20207424.801   107868605.621        1930.517          52.750    20207443.511    83897878.442        1501.503          49.000  
C01  37442812.216   194974541.506         -83.548          44.250    37442820.866   150766735.874         -64.644          49.250    37442812.216   158432790.190         -67.996          44.250  
C02  37391126.218   194705394.648         -24.262          43.500    37391136.815   150558625.730         -18.812          50.000    37391127.700   158214096.065         -19.591          42.750  
