     2.11           OBSERVATION DATA    M (MIXED)           RINEX VERSION / TYPE
teqc  2013Mar15                         20151222 02:44:42UTCPGM / RUN BY / DATE
Linux2.4.20-8|i386|gcc|Win32-MinGW32|=                      COMMENT
teqc  2009Mar23     Ryan Ruddick        20100621 00:03:35UTCCOMMENT
Solaris x86 5.10|AMD64|cc SC5.8 -xarch=amd64|=+|=+          COMMENT
BIT 2 OF LLI FLAGS DATA COLLECTED UNDER A/S CONDITION       COMMENT
DAV1                                                        MARKER NAME
66010M001                                                   MARKER NUMBER
GEOSCIENCE AUSTRALIAGEOSCIENCE AUSTRALIA                    OBSERVER / AGENCY
356502              LEICA GRX1200GGPRO  7.50 / 3.019        REC # / TYPE / VERS
CR5200428009        ASH701945G_M    AUST                    ANT # / TYPE
   486854.5000  2285099.3660 -5914955.7710                  APPROX POSITION XYZ
        0.0005        0.0000        0.0000                  ANTENNA: DELTA H/E/N
     1     1                                                WAVELENGTH FACT L1/2
     6    L1    L2    C1    P2    S1    S2                  # / TYPES OF OBSERV
    30.0000                                                 INTERVAL
Forced Modulo Decimation to 30 seconds                      COMMENT
Default                                                     COMMENT
Project creator:                                            COMMENT
Geoscience Australia                                        COMMENT
 SNR is mapped to RINEX snr flag value [0-9]                COMMENT
  L1 & L2: min(max(int(snr_dBHz/6), 0), 9)                  COMMENT
teqc windowed: start @ 2010 Jun 20 00:00:00.000             COMMENT
teqc windowed:  end  @ 2010 Jun 20 23:59:30.000             COMMENT
    15                                                      LEAP SECONDS
teqc edited: all GLONASS satellites excluded                COMMENT
teqc edited: all SBAS satellites excluded                   COMMENT
teqc edited: all Galileo satellites excluded                COMMENT
  2010     6    20     0     0    0.0000000     GPS         TIME OF FIRST OBS
                                                            END OF HEADER
 10  6 20  0  0  0.0000000  0 11G14G12G30G04G32G16G02G23G20G29G31
 128819197.946 6 100378581.06645  24513479.780    24513476.860          40.500
        34.500
 119994672.470 7  93502336.22247  22834224.840    22834221.620          47.750
        42.250
 110809624.526 8  86345163.86848  21086368.740    21086366.460          51.500
        49.000
 125252108.415 7  97599051.86146  23834682.640    23834680.540          44.750
        36.250
 129879615.949 6 101204898.64445  24715271.780    24715270.000          40.750
        34.000
 134865189.197 6 105089753.09544  25663993.460    25663989.260          39.000
        28.750
 118373209.935 8  92238843.74147  22525672.800    22525668.080          49.250
        43.250
 125440258.388 7  97745636.17545  23870487.540    23870482.260          45.500
        35.500
 129019617.397 6 100534753.51945  24551616.880    24551613.460          40.500
        34.250
 113299645.950 8  88285423.30347  21560202.880    21560200.440          50.000
        47.750
 108421984.560 8  84484645.93148  20632013.820    20632010.260          51.250
        50.250
 10  6 20  0  0 30.0000000  0 11G14G12G30G04G32G16G02G23G20G29G31
 128937312.193 6 100470618.03845  24535956.140    24535953.460          40.500
        31.250
 120093565.506 7  93579395.72046  22853043.520    22853040.400          47.500
        41.750
 110852363.790 8  86378467.19148  21094501.740    21094499.480          51.500
        49.000
 125307266.602 7  97642032.26246  23845178.840    23845176.780          44.750
        36.000
 129977184.736 6 101280926.61745  24733838.280    24733836.500          41.500
        35.000
 134749478.172 6 104999588.56945  25641974.440    25641970.160          38.750
        30.500
 118371010.288 8  92237129.59947  22525254.320    22525249.640          49.250
        43.500
 125359730.598 7  97682887.23546  23855163.580    23855158.300          45.000
        36.750
 129087647.583 6 100587763.95446  24564562.780    24564559.240          41.000
        36.000
 113226877.545 8  88228720.62348  21546355.420    21546353.080          50.000
        48.000
 108400946.935 8  84468252.97748  20628010.500    20628006.900          51.250
        50.250
 10  6 20  0  1  0.0000000  0 11G14G12G30G04G32G16G02G23G20G29G31
 129055550.857 6 100562751.99445  24558456.240    24558453.800          41.000
        34.250
 120192723.172 7  93656661.43247  22871912.580    22871909.440          47.750
        42.250
 110895538.452 8  86412109.76848  21102717.620    21102715.380          51.500
        49.000
 125362917.572 7  97685396.64646  23855768.840    23855766.820          45.250
        36.500
 130075063.101 6 101357195.69045  24752463.600    24752461.920          41.750
        33.750
 134633783.624 6 104909436.98144  25619958.360    25619954.620          39.750
        28.750
 118369446.071 8  92235910.82547  22524956.720    22524952.120          49.000
        44.000
 125279625.712 7  97620467.81846  23839920.260    23839914.800          44.750
        36.500
 129156090.424 6 100641095.86545  24577586.900    24577583.520          41.250
        32.750
 113154595.869 8  88172397.23748  21532600.640    21532598.360          50.250
        48.000
 108380537.722 8  84452349.66148  20624126.760    20624123.180          51.250
        50.250
 10  6 20  0  1 30.0000000  0 11G14G12G30G04G32G16G02G23G20G29G31
 129173909.787 6 100654979.65245  24580979.140    24580976.800          39.250
        32.750
 120292141.974 8  93734130.63147  22890831.420    22890828.280          48.000
        42.250
 110939146.410 8  86446089.97748  21111015.960    21111013.740          51.500
        48.750
 125419058.340 7  97729142.71246  23866452.220    23866450.120          45.000
        38.000
 130173246.502 6 101433702.34945  24771147.120    24771145.480          41.500
        32.750
 134518105.687 6 104819298.33545  25597945.600    25597941.980          41.250
        32.250
 118368515.489 8  92235185.82747  22524779.520    22524775.040          49.000
        43.500
 125199945.157 7  97558379.09646  23824757.520    23824752.140          44.750
        36.500
 129224942.148 6 100694746.51645  24590689.120    24590685.520          40.250
        34.750
 113082801.753 8  88116453.76848  21518938.660    21518936.380          50.250
        48.000
 108360757.361 8  84436936.43848  20620362.680    20620359.080          51.250
        50.250
 10  6 20  0  2  0.0000000  0 11G14G12G30G04G32G16G02G23G20G29G31
 129292383.883 6 100747297.03845  24603523.860    24603521.880          38.500
        33.500
 120391817.605 8  93811799.96047  22909799.180    22909795.860          48.250
        42.500
 110983183.757 8  86480404.78748  21119395.980    21119393.740          51.500
        48.750
 125475684.364 7  97773266.91146  23877227.960    23877225.540          45.000
        37.500
 130271728.944 6 101510441.96145  24789887.500    24789885.920          40.750
        30.750
 134402442.834 6 104729171.36645  25575935.720    25575932.200          41.250
        30.000
 118368215.873 8  92234952.42947  22524722.360    22524717.940          49.000
        43.250
 125120688.656 7  97496620.76846  23809675.600    23809670.080          45.250
        36.750
 129294197.517 6 100748711.62645  24603868.040    24603864.560          41.000
        34.000
 113011494.574 8  88060889.71048  21505369.380    21505367.060          50.250
        48.000
 108341603.627 8  84422011.51048  20616717.780    20616714.220          51.250
        50.500
 10  6 20  0  2 30.0000000  0 11G14G12G30G04G32G16G02G23G20G29G31
 129410972.876 6 100839704.04745  24626090.580    24626088.320          39.500
        34.250
 120491750.991 8  93889670.12947  22928815.960    22928812.680          48.250
        43.000
 111027652.522 8  86515055.76048  21127858.120    21127855.860          51.500
        49.000
 125532796.520 7  97817769.88845  23888096.060    23888093.560          44.750
        35.750
 130370510.163 6 101587414.36046  24808684.860    24808683.020          40.250
        36.000
 134286799.701 6 104639059.82945  25553929.560    25553926.140          41.000
        34.250
 118368550.143 8  92235212.98047  22524785.880    22524781.380          49.000
        42.750
 125041861.671 7  97435197.13146  23794675.420    23794669.860          45.250
        37.250
 129363856.609 6 100802991.15645  24617123.840    24617120.420          39.500
        31.250
 112940679.225 8  88005708.93948  21491893.680    21491891.340          50.250
        48.000
 108323080.462 8  84407577.87748  20613192.880    20613189.340          51.250
        50.500
 10  6 20  0  3  0.0000000  0 11G14G12G30G04G32G16G02G23G20G29G31
 129529670.496 6 100932195.71345  24648678.280    24648675.760          40.750
        33.750
 120591936.642 7  93967736.85147  22947880.600    22947877.440          47.750
        42.500
 111072548.021 8  86550039.24348  21136401.520    21136399.180          51.500
        48.750
 125590389.746 7  97862647.71646  23899055.540    23899053.240          45.000
        38.000
 130469583.617 6 101664614.47245  24827537.700    24827535.960          40.750
        30.500
 134171174.154 6 104548961.93945  25531926.600    25531923.280          41.000
        32.000
 118369514.802 8  92235964.68247  22524969.400    22524964.760          48.750
        42.750
 124963463.253 7  97374107.46345  23779756.600    23779751.080          45.500
        35.750
 129433914.459 6 100857581.58645  24630455.480    24630451.920          40.750
        34.500
 112870354.149 8  87950910.19348  21478511.320    21478508.920          50.250
        48.500
 108305185.524 8  84393633.87248  20609787.600    20609783.980          51.250
        50.250
 10  6 20  0  3 30.0000000  0 11G14G12G30G04G32G16G02G23G20G29G31
 129648476.190 6 101024771.57345  24671286.440    24671284.000          39.000
        33.250
 120692374.892 7  94046000.40247  22966993.260    22966990.180          47.750
        42.500
 111117871.428 8  86585356.15748  21145026.300    21145023.900          51.500
        48.500
 125648464.068 7  97907900.43646  23910106.680    23910104.440          45.500
        37.500
 130568948.124 6 101742041.44345  24846446.120    24846444.700          40.500
        35.000
 134055570.119 6 104458880.83645  25509927.900    25509924.840          41.250
        33.000
 118371112.288 8  92237209.50947  22525273.260    22525268.680          49.000
        43.000
 124885498.136 7  97313355.43246  23764920.240    23764914.920          45.500
        37.000
 129504370.438 6 100912482.36545  24643863.040    24643859.780          40.000
        34.500
 112800523.474 8  87896496.67048  21465223.080    21465220.640          50.250
        48.250
 108287921.758 8  84380181.60948  20606502.400    20606498.740          51.250
        50.250
 10  6 20  0  4  0.0000000  0 11G14G12G30G04G32G16G02G23G20G29G31
 129767387.617 6 101117429.86645  24693914.500    24693912.100          39.000
        35.750
 120793063.931 8  94124459.39646  22986153.820    22986150.540          48.000
        41.500
 111163622.203 8  86621006.07948  21153732.440    21153730.000          51.500
        48.750
 125707017.920 7  97953526.82946  23921249.200    23921246.940          45.500
        37.500
 130668600.626 6 101819692.72445  24865409.100    24865407.900          40.500
        33.750
 133939989.292 6 104368817.83645  25487933.720    25487930.780          41.000
        30.500
 118373342.704 8  92238947.51647  22525697.660    22525693.060          49.000
        43.000
 124807969.158 7  97252943.22446  23750166.920    23750161.760          46.250
        36.500
 129575222.013 6 100967691.09245  24657345.760    24657342.440          40.500
        34.250
 112731189.692 8  87842470.34048  21452029.340    21452026.860          50.250
        48.000
 108271290.238 8  84367221.84648  20603337.520    20603333.880          51.250
        50.500
 10  6 20  0  4 30.0000000  0 11G14G12G30G04G32G16G02G23G20G29G31
 129886399.338 6 101210166.24144  24716561.460    24716559.160          39.000
        28.750
 120893999.263 8  94203110.27746  23005361.240    23005357.860          48.000
        41.750
 111209796.794 8  86656986.28148  21162519.220    21162516.780          51.500
        48.750
 125766047.263 7  97999523.72546  23932482.220    23932479.840          45.750
        36.750
 130768535.470 6 101897564.09945  24884426.120    24884424.760          40.250
        33.750
 133824430.700 6 104278772.17745  25465943.580    25465940.580          40.500
        34.250
 118376203.766 8  92241176.92547  22526242.160    22526237.440          49.250
        43.500
 124730876.424 7  97192870.92546  23735496.660    23735491.480          45.750
        38.500
 129646464.681 6 101023204.72646  24670902.960    24670899.800          41.250
        36.500
 112662352.196 8  87788830.72648  21438929.980    21438927.480          50.250
        48.250
 108255289.850 8  84354754.01348  20600292.760    20600289.180          51.250
        50.250
 10  6 20  0  5  0.0000000  0 12G14G12G30G04G32G16G02G23G20G29G31G13
 130005512.110 6 101302981.41745  24739227.880    24739225.440          39.250
        32.000
 120995182.874 8  94281954.66646  23024615.880    23024612.500          48.000
        41.250
 111256397.980 8  86693298.90548  21171387.160    21171384.700          51.500
        48.750
 125825553.577 7  98045892.29246  23943805.880    23943803.560          45.500
        38.000
 130868753.163 6 101975655.81445  24903496.820    24903495.320          40.250
        34.000
 133708899.806 6 104188748.13145  25443958.800    25443955.540          40.250
        34.500
 118379698.916 8  92243900.39747  22526907.360    22526902.640          49.250
        43.750
 124654226.240 7  97133143.45646  23720910.740    23720905.460          46.500
        37.500
 129718100.179 6 101079024.59146  24684534.740    24684531.680          41.750
        36.250
 112594016.695 8  87735582.25948  21425926.120    21425923.620          50.250
        48.250
 108239924.952 8  84342781.32648  20597368.900    20597365.340          51.250
        50.250
 135115694.891 6 105284929.03145  25711662.420    25711659.960          40.000
        30.250
 10  6 20  0  5 30.0000000  0 12G14G12G30G04G32G16G02G23G20G29G31G13
 130124719.621 6 101395870.39545  24761912.400    24761909.900          39.750
        32.750
 121096609.105 7  94360988.09446  23043916.720    23043913.320          47.750
        41.750
 111303420.955 8  86729940.19648  21180335.320    21180332.880          51.500
        48.500
 125885531.435 7  98092628.27946  23955219.300    23955216.980          45.500
        36.250
 130969246.781 6 102053962.54144  24922620.200    24922618.540          40.250
        28.500
 133593394.208 6 104098743.76745  25421978.720    25421975.560          40.000
        34.500
 118383824.658 8  92247115.28747  22527692.460    22527687.860          49.250
        43.750
 124578017.229 7  97073759.79146  23706408.740    23706403.360          46.500
        37.000
 129790121.675 6 101135145.19645  24698239.980    24698237.420          41.250
        34.750
 112526181.463 8  87682723.66648  21413017.480    21413014.980          50.250
        48.250
 108225192.794 8  84331301.80648  20594565.460    20594561.880          51.250
        50.250
 135008466.381 6 105201374.37645  25691257.720    25691255.560          41.500
        34.250
 10  6 20  0  6  0.0000000  0 12G14G12G30G04G32G16G02G23G20G29G31G13
 130244021.005 6 101488832.49445  24784614.780    24784612.320          40.000
        31.000
 121198278.145 7  94440210.70746  23063263.620    23063260.320          47.250
        41.500
 111350866.539 8  86766910.79748  21189363.860    21189361.480          51.500
        48.750
 125945980.818 7  98139731.69446  23966722.380    23966720.100          44.500
        37.500
 131070014.897 6 102132483.21345  24941795.900    24941794.220          40.250
        32.250
 133477917.487 6 104008761.88945  25400004.220    25400001.060          41.000
        33.500
 118388582.317 8  92250822.55247  22528597.820    22528593.300          49.250
        43.750
 124502253.791 7  97014723.31946  23691991.400    23691985.980          45.750
        37.750
 129862528.604 6 101191566.12645  24712018.580    24712015.920          41.250
        35.000
 112458850.259 8  87630257.86248  21400204.760    21400202.260          50.500
        48.250
 108211096.043 8  84320317.37248  20591882.920    20591879.320          51.250
        50.500
 134901411.954 7 105117955.36146  25670886.080    25670883.060          42.250
        36.250
 10  6 20  0  6 30.0000000  0 12G14G12G30G04G32G16G02G23G20G29G31G13
 130363414.546 6 101581866.38945  24807334.500    24807332.300          39.750
        35.250
 121300188.769 7  94519621.56646  23082656.440    23082653.300          47.000
        41.500
 111398734.723 8  86804210.70148  21198472.820    21198470.540          51.500
        48.500
 126006900.565 7  98187201.62746  23978314.940    23978312.780          45.000
        38.250
 131171055.274 6 102211215.97645  24961023.240    24961021.440          40.000
        32.250
 133362472.337 6 103918804.56945  25378035.700    25378032.560          41.250
        32.000
 118393973.208 8  92255023.24447  22529623.720    22529619.140          49.500
        43.750
 124426939.542 7  96956036.83846  23677659.620    23677654.180          46.500
        37.500
 129935320.307 6 101248287.03246  24725870.320    24725867.680          41.250
        36.250
 112392026.351 8  87578187.30348  21387488.560    21387486.080          50.500
        48.250
 108197636.307 8  84309829.28348  20589321.600    20589318.000          51.250
        50.500
 134794533.785 6 105034673.67245  25650547.780    25650544.720          41.250
        35.000
 10  6 20  0  7  0.0000000  0 12G14G12G30G04G32G16G02G23G20G29G31G13
 130482894.328 6 101674967.50245  24830070.660    24830068.560          40.000
        34.750
 121402336.122 7  94599216.88846  23102094.440    23102091.260          47.250
        41.500
 111447021.470 8  86841836.74448  21207661.460    21207659.160          51.500
        48.750
 126068285.751 7  98235034.23246  23989996.120    23989994.000          45.000
        38.500
 131272361.551 6 102290155.92646  24980301.080    24980299.640          39.750
        36.000
 133247056.994 6 103828870.50445  25356072.880    25356069.560          41.250
        31.500
 118399993.968 8  92259714.74647  22530769.520    22530764.800          49.250
        43.750
 124352073.860 7  96897699.90846  23663413.200    23663407.840          46.500
        37.500
 130008490.575 6 101305302.92845  24739793.980    24739791.140          40.750
        35.500
 112325708.273 8  87526510.90148  21374868.580    21374866.160          50.500
        48.500
 108184811.412 8  84299835.82948  20586881.080    20586877.500          51.250
        50.500
 134687829.893 6 104951527.83645  25630242.660    25630239.580          41.000
        32.000
 10  6 20  0  7 30.0000000  0 13G14G12G30G04G32G16G02G23G20G29G31G13
                                G10
 130602460.487 6 101768135.88245  24852823.280    24852821.100          40.250
        30.500
 121504720.767 7  94678997.12846  23121577.600    23121574.400          47.500
        41.500
 111495728.457 8  86879790.24948  21216930.080    21216927.800          51.500
        48.500
 126130137.083 7  98283230.07246  24001766.100    24001763.840          44.250
        38.750
 131373933.147 6 102369302.58945  24999629.500    24999627.720          39.750
        32.250
 133131675.901 6 103738963.17745  25334116.660    25334113.400          41.250
        31.750
 118406647.082 8  92264899.00547  22532035.640    22532030.800          49.250
        43.250
 124277661.957 7  96839716.56646  23649253.040    23649247.640          46.250
        36.500
 130082039.058 6 101362613.37545  24753789.940    24753786.960          39.500
        34.750
 112259900.660 8  87475232.25448  21362345.780    21362343.420          50.500
        48.750
 108172625.029 8  84290339.95148  20584562.080    20584558.480          51.250
        50.500
 134581309.118 7 104868524.61245  25609972.400    25609969.400          42.500
        33.750
 136461278.926 6 106333449.03743  25967717.600    25967708.700          37.750
        18.000
 10  6 20  0  8  0.0000000  0 13G14G12G30G04G32G16G02G23G20G29G31G13
                                G10
 130722108.950 6 101861368.44845  24875591.580    24875589.420          40.250
        32.000
 121607339.720 7  94758959.94547  23141105.400    23141102.120          47.250
        42.000
 111544853.144 8  86918069.22548  21226278.180    21226275.900          51.500
        48.500
 126192451.690 7  98331786.90746  24013624.260    24013621.900          45.000
        38.500
 131475765.526 6 102448652.42645  25019007.700    25019005.560          39.750
        32.000
 133016329.341 6 103649082.75145  25312166.900    25312163.920          41.250
        33.000
 118413930.737 8  92270574.59447  22533421.600    22533416.820          49.250
        43.500
 124203704.973 7  96782087.70746  23635179.580    23635174.080          46.000
        37.500
 130155962.446 6 101420215.86745  24767857.140    24767854.360          39.750
        32.500
 112194604.258 8  87424351.94148  21349920.320    21349917.960          50.500
        48.750
 108161076.405 8  84281341.02348  20582364.440    20582360.820          51.250
        50.500
 134474968.780 6 104785662.08545  25589736.460    25589733.600          40.500
        34.250
 136366988.400 6 106259974.78045  25949774.800    25949773.640          41.750
        31.000
 10  6 20  0  8 30.0000000  0 13G14G12G30G04G32G16G02G23G20G29G31G13
                                G10
 130841836.191 6 101954662.40344  24898374.920    24898373.160          40.500
        27.250
 121710190.451 7  94839103.36446  23160677.320    23160674.020          47.500
        41.000
 111594393.590 8  86956672.17748  21235705.420    21235703.120          51.500
        48.500
 126255226.433 7  98380702.27746  24025569.960    24025567.540          45.000
        36.500
 131577854.943 6 102528202.60245  25038434.720    25038432.800          39.750
        34.500
 132901018.277 6 103559230.02145  25290223.880    25290220.920          41.500
        33.750
 118421844.466 8  92276741.16347  22534927.520    22534922.740          49.250
        43.500
 124130204.702 7  96724814.76846  23621192.940    23621187.580          45.750
        38.000
 130230257.633 6 101478108.02645  24781995.260    24781992.160          41.000
        33.750
 112129820.165 8  87373870.84648  21337592.400    21337589.960          50.750
        49.000
 108150165.785 8  84272839.21948  20580288.240    20580284.620          51.250
        50.500
 134368815.203 6 104702944.99146  25569536.060    25569533.220          39.000
        36.000
 136272884.525 6 106186647.08145  25931867.740    25931865.700          37.750
        31.500
 10  6 20  0  9  0.0000000  0 13G14G12G30G04G32G16G02G23G20G29G31G13
                                G10
 130961639.486 6 102048015.55845  24921172.760    24921170.940          40.500
        33.250
 121813270.881 7  94919425.77846  23180292.940    23180289.400          47.250
        40.500
 111644348.977 8  86995598.45648  21245211.620    21245209.300          51.250
        48.500
 126318459.658 7  98429974.91846  24037602.840    24037600.440          44.500
        37.250
 131680198.080 6 102607950.43645  25057910.180    25057907.980          40.500
        33.750
 132785744.000 6 103469405.89945  25268287.980    25268284.880          41.500
        34.500
 118430387.764 8  92283398.30747  22536553.240    22536548.480          49.000
        43.250
 124057163.658 7  96667899.65146  23607293.680    23607288.440          45.500
        36.500
 130304921.287 6 101536286.76845  24796203.340    24796200.460          41.750
        34.000
 112065550.398 8  87323790.50648  21325362.340    21325359.840          50.500
        49.000
 108139893.699 8  84264834.92248  20578333.560    20578329.960          51.250
        50.500
 134262847.907 6 104620373.07445  25549371.080    25549368.420          37.000
        33.000
 136178970.212 5 106113467.16944  25913996.380    25913994.320          35.250
        28.750
 10  6 20  0  9 30.0000000  0 13G14G12G30G04G32G16G02G23G20G29G31G13
                                G10
 131081518.517 6 102141427.77344  24943985.140    24943982.760          40.500
        29.000
 121916581.552 7  94999927.59446  23199952.300    23199948.760          47.250
        40.750
 111694720.639 8  87034849.10048  21254797.040    21254794.760          51.250
        48.250
 126382151.468 7  98479604.90646  24049723.000    24049720.480          44.250
        37.250
 131782794.069 6 102687895.32145  25077433.580    25077431.640          41.250
        33.750
 132670511.015 6 103379613.95244  25246359.820    25246356.680          41.500
        29.750
 118439562.922 8  92290547.80147  22538299.040    22538294.460          49.000
        43.250
 123984586.737 7  96611346.22046  23593482.780    23593477.420          46.000
        37.250
 130379955.629 6 101594755.14846  24810482.080    24810479.280          41.250
        36.500
 112001799.075 8  87274114.16848  21313230.840    21313228.340          50.500
        49.000
 108130263.626 8  84257330.96348  20576501.060    20576497.480          51.250
        50.500
 134157073.039 5 104537951.14345  25529242.820    25529240.020          34.750
        34.250
 136085250.230 6 106040438.61644  25896161.680    25896159.340          41.500
        29.750
 10  6 20  0 10  0.0000000  0 13G14G12G30G04G32G16G02G23G20G29G31G13
                                G10
 131201467.570 6 102234894.58945  24966810.740    24966808.180          39.250
        33.250
 122020117.427 7  95080604.90846  23219654.540    23219651.040          47.500
        41.000
 111745504.471 8  87074420.91948  21264460.920    21264458.560          51.500
        48.250
 126446296.825 7  98529588.30346  24061929.460    24061927.000          44.500
        37.000
 131885636.556 6 102768032.30345  25097003.880    25097001.820          41.000
        32.000
 132555317.329 6 103289852.68645  25224439.160    25224436.220          41.000
        34.500
 118449366.590 8  92298187.02147  22540164.520    22540160.060          49.250
        43.500
 123912473.162 7  96555153.83446  23579760.120    23579754.720          46.250
        37.250
 130455352.700 6 101653505.74843  24824829.880    24824827.020          37.250
        23.250
 111938564.784 8  87224840.69148  21301197.720    21301195.240          50.500
        49.000
 108121272.922 8  84250325.22448  20574790.220    20574786.600          51.250
        50.500
 134051490.165 5 104455678.88745  25509150.900    25509148.160          32.750
        30.250
 135991724.462 6 105967561.42645  25878364.180    25878362.520          40.500
        31.750
 10  6 20  0 10 30.0000000  0 13G14G12G30G04G32G16G02G23G20G29G31G13
                                G10
 131321485.160 6 102328414.75446  24989649.300    24989647.000          37.250
        37.250
 122123878.060 7  95161457.35546  23239399.580    23239396.120          47.250
        41.750
 111796700.558 8  87114313.96648  21274203.200    21274200.780          51.250
        48.000
 126510895.036 7  98579924.58846  24074222.040    24074219.640          43.000
        38.000
 131988723.646 6 102848359.86745  25116620.640    25116618.720          40.500
        30.250
 132440165.968 6 103200124.38945  25202526.660    25202523.500          40.500
        33.250
 118459799.504 8  92306316.57447  22542149.900    22542145.300          49.250
        43.500
 123840826.505 7  96499325.29046  23566126.240    23566120.660          46.000
        36.250
 130531112.134 6 101712538.73145  24839246.640    24839243.560          40.000
        35.000
 111875850.888 8  87175972.69648  21289263.640    21289261.160          50.500
        49.000
 108112923.380 8  84243819.10648  20573201.360    20573197.720          51.250
        50.500
 133946103.022 5 104373559.10545  25489096.320    25489093.560          34.000
        34.750
 135898396.837 6 105894838.64745  25860604.480    25860603.240          40.500
        33.000
 10  6 20  0 11  0.0000000  0 13G14G12G30G04G32G16G02G23G20G29G31G13
                                G10
 131441569.258 6 102421986.78745  25012500.560    25012498.540          37.500
        32.000
 122227862.248 7  95242483.98346  23259187.100    23259183.760          47.250
        41.500
 111848308.782 8  87154528.18148  21284023.900    21284021.480          51.250
        48.000
 126575944.908 7  98630612.78346  24086600.560    24086598.160          42.750
        38.000
 132092053.059 6 102928876.28544  25136283.500    25136282.180          40.500
        29.750
 132325059.815 6 103110431.34745  25180622.520    25180619.180          41.500
        35.250
 118470862.260 8  92314936.88747  22544255.120    22544250.400          49.250
        43.500
 123769650.413 7  96443863.38646  23552581.880    23552576.140          46.250
        36.750
 130607234.437 6 101771855.56645  24853732.300    24853729.140          41.000
        33.500
 111813660.284 8  87127512.48248  21277429.160    21277426.680          50.500
        48.750
 108105216.532 8  84237813.76548  20571734.820    20571731.180          51.250
        50.500
 133840915.762 6 104291594.96845  25469079.940    25469076.880          38.000
        32.500
 135805270.840 6 105822272.91645  25842883.260    25842881.700          40.000
        33.500
 10  6 20  0 11 30.0000000  0 13G14G12G30G04G32G16G02G23G20G29G31G13
                                G10
 131561715.730 6 102515607.38245  25035363.800    25035361.800          38.000
        34.750
 122332066.554 7  95323682.11646  23279016.520    23279013.120          47.250
        40.500
 111900326.324 8  87195061.32648  21293922.500    21293920.100          51.250
        48.000
 126641442.706 7  98681650.00446  24099064.240    24099062.080          42.000
        36.500
 132195619.947 6 103009577.74844  25155991.580    25155990.680          40.000
        29.000
 132209998.396 6 103020773.08446  25158727.000    25158723.600          40.500
        36.000
 118482553.069 8  92324046.59647  22546479.880    22546475.140          49.250
        43.500
 123698945.400 7  96388768.60046  23539127.120    23539121.560          45.750
        36.250
 130683712.865 6 101831449.55445  24868285.560    24868282.740          40.250
        35.750
 111751992.732 8  87079459.82448  21265694.180    21265691.700          50.500
        49.000
 108098151.641 8  84232308.68048  20570390.420    20570386.820          51.250
        50.750
 133735929.034 6 104209787.05744  25449101.860    25449098.420          38.500
        25.500
 135712347.656 7 105749865.28345  25825200.480    25825198.540          42.000
        31.250
 10  6 20  0 12  0.0000000  0 13G14G12G30G04G32G16G02G23G20G29G31G13
                                G10
 131681923.111 6 102609275.50745  25058238.480    25058236.440          38.250
        33.000
 122436490.299 7  95405051.27046  23298887.760    23298884.260          47.000
        41.000
 111952753.311 8  87235913.51248  21303899.060    21303896.600          51.250
        48.000
 126707387.697 7  98733035.68646  24111612.980    24111611.100          42.750
        37.000
 132299422.255 6 103090462.66944  25175744.500    25175743.020          38.500
        28.750
 132094984.832 6 102931152.06445  25136840.700    25136837.660          41.000
        31.500
 118494872.517 8  92333646.19747  22548824.180    22548819.580          49.250
        43.500
 123628715.196 7  96334043.77646  23525762.640    23525757.320          45.750
        36.000
 130760546.040 6 101891319.81945  24882906.160    24882903.260          40.500
        33.500
 111690851.453 8  87031817.26948  21254059.340    21254056.900          50.500
        48.750
 108091730.193 8  84227304.95248  20569168.440    20569164.860          51.250
        50.500
 133631147.006 6 104128138.68044  25429162.540    25429159.300          38.500
        28.500
 135619631.152 6 105677618.65545  25807557.020    25807554.840          40.500
        34.500
 10  6 20  0 12 30.0000000  0 13G14G12G30G04G32G16G02G23G20G29G31G13
                                G10
 131802188.100 6 102702988.52344  25081124.080    25081121.800          38.500
        29.000
 122541131.143 7  95486589.59246  23318800.220    23318796.780          46.250
        41.250
 112005588.139 8  87277083.50648  21313953.180    21313950.760          51.250
        48.000
 126773777.313 7  98784767.85745  24124246.480    24124244.560          44.250
        35.000
 132403456.226 6 103171528.09745  25195541.520    25195539.620          37.750
        33.000
 131980020.030 6 102841569.05845  25114963.700    25114960.620          40.000
        32.500
 118507819.723 8  92343734.95847  22551287.980    22551283.320          49.250
        43.750
 123558961.492 7  96279690.25246  23512488.840    23512483.780          45.750
        38.000
 130837731.194 6 101951464.29945  24897593.720    24897591.000          41.500
        32.750
 111630237.751 8  86984585.81748  21242524.940    21242522.480          50.500
        49.000
 108085952.389 8  84222802.78848  20568068.980    20568065.360          51.500
        50.500
 133526571.837 6 104046651.57644  25409262.580    25409259.240          39.750
        29.250
 135527124.030 6 105605535.19445  25789953.520    25789951.240          41.000
        32.000
 10  6 20  0 13  0.0000000  0 13G14G12G30G04G32G16G02G23G20G29G31G13
                                G10
 131922513.961 6 102796754.71244  25104019.620    25104017.440          38.750
        27.500
 122645985.052 7  95568293.91746  23338753.120    23338749.880          46.250
        41.000
 112058827.687 8  87318568.86748  21324084.280    21324081.920          51.250
        48.250
 126840607.300 7  98836843.20246  24136963.900    24136961.740          43.750
        36.250
 132507716.566 6 103252769.98644  25215381.620    25215379.340          36.500
        26.250
 131865103.776 6 102752023.97045  25093095.720    25093092.620          39.750
        33.500
 118521392.030 8  92354310.81447  22553870.720    22553865.940          49.500
        43.000
 123489684.680 7  96225708.29246  23499305.980    23499300.780          45.750
        36.250
 130915263.795 6 102011879.37945  24912347.440    24912344.760          40.500
        30.750
 111570151.252 8  86937765.18748  21231090.840    21231088.360          50.500
        49.000
 108080816.388 8  84218800.70148  20567091.620    20567087.960          51.500
        50.750
 133422204.021 6 103965325.94644  25389402.100    25389399.060          39.500
        24.500
 135434825.996 6 105533614.66245  25772389.740    25772387.720          41.250
        33.500
 10  6 20  0 13 30.0000000  0 13G14G12G30G04G32G16G02G23G20G29G31G13
                                G10
 132042884.916 6 102890550.22645  25126925.460    25126923.360          38.750
        30.750
 122751053.085 7  95650165.09546  23358746.800    23358743.640          46.500
        39.500
 112112473.677 8  87360370.93548  21334292.720    21334290.420          51.250
        48.000
 126907878.469 7  98889262.28745  24149765.340    24149762.940          44.000
        35.500
 132612202.967 6 103334187.94745  25235264.800    25235262.620          38.250
        31.750
 131750240.501 6 102662520.14645  25071238.080    25071234.780          40.750
        35.000
 118535591.963 8  92365375.73047  22556572.880    22556567.940          49.000
        43.250
 123420889.976 7  96172102.03346  23486214.660    23486209.580          46.000
        36.750
 130993144.183 6 102072565.49045  24927167.540    24927164.920          39.250
        31.750
 111510596.561 8  86891358.93448  21219757.960    21219755.480          50.750
        49.000
 108076325.879 8  84215301.61748  20566237.120    20566233.440          51.250
        50.500
 133318049.607 6 103884166.64245  25369582.140    25369578.760          36.500
        32.500
 135342743.373 6 105461861.98345  25754866.920    25754864.820          41.750
        34.500
 10  6 20  0 14  0.0000000  0 13G14G12G30G04G32G16G02G23G20G29G31G13
                                G10
 132163306.358 6 102984385.13845  25149840.900    25149839.420          38.250
        31.000
 122856333.099 7  95732201.47246  23378780.840    23378777.780          46.750
        39.750
 112166524.901 8  87402488.76648  21344578.380    21344576.040          51.250
        48.000
 126975588.740 7  98942023.53645  24162650.140    24162647.880          43.250
        34.250
 132716912.239 6 103415779.55145  25255190.260    25255188.160          38.750
        33.750
 131635431.723 6 102573058.67945  25049390.560    25049387.660          39.750
        35.500
 118550419.080 8  92376929.35647  22559394.320    22559389.320          49.250
        43.250
 123352579.793 7  96118873.30546  23473215.680    23473210.640          46.250
        38.000
 131071369.908 6 102133520.71745  24942053.260    24942050.340          40.750
        34.000
 111451575.544 8  86845368.53648  21208526.640    21208524.220          50.500
        49.250
 108072481.363 8  84212305.88648  20565505.520    20565501.820          51.250
        50.500
 133214111.127 5 103803175.67046  25349803.340    25349800.400          34.500
        36.750
 135250879.133 7 105390279.51245  25737385.840    25737383.400          42.500
        31.500
 10  6 20  0 14 30.0000000  0 12G14G12G30G04G32G16G02G23G20G29G31G10
 132283772.775 6 103078255.02545  25172764.780    25172763.380          38.000
        32.750
 122961820.703 7  95814399.60646  23398854.460    23398851.480          46.750
        39.500
 112220977.403 8  87444919.27948  21354940.380    21354938.040          51.250
        48.000
 127043733.152 7  98995123.07045  24175617.400    24175615.220          43.500
        35.750
 132821838.518 6 103497540.38846  25275157.020    25275155.060          39.250
        36.750
 131520676.560 6 102483639.09545  25027553.480    25027550.520          40.500
        34.000
 118565869.993 8  92388969.04547  22562334.460    22562329.500          49.000
        43.250
 123284753.657 7  96066021.75046  23460308.800    23460303.660          46.500
        37.750
 131149935.342 6 102194740.54645  24957003.760    24957001.000          40.750
        32.000
 111393087.097 8  86799793.12848  21197396.640    21197394.240          50.750
        49.250
 108069280.445 8  84209811.66248  20564896.400    20564892.680          51.500
        50.500
 135159233.327 7 105318867.19445  25719946.380    25719944.000          42.500
        33.000
 10  6 20  0 15  0.0000000  0 13G14G12G30G04G32G16G02G23G20G29G31G13
                                G10
 132404285.200 6 103172160.88445  25195697.600    25195695.940          38.000
        31.500
 123067517.622 7  95896760.84646  23418967.940    23418964.880          46.500
        40.000
 112275833.882 8  87487664.58648  21365379.220    21365376.900          51.250
        48.000
 127112313.283 7  99048562.15445  24188667.820    24188665.660          43.500
        35.750
 132926982.293 6 103579470.62845  25295165.060    25295163.600          40.000
        32.750
 131405980.327 6 102394265.42145  25005727.500    25005724.580          40.750
        33.750
 118581947.911 8  92401497.28847  22565393.920    22565389.020          48.750
        43.250
 123217417.672 7  96013552.13946  23447495.300    23447490.060          46.500
        38.000
 131228841.833 6 102256226.02345  24972019.020    24972016.040          38.750
        30.500
 111335136.594 8  86754636.91748  21186369.020    21186366.640          50.750
        49.000
 108066727.527 8  84207822.37248  20564410.600    20564406.860          51.250
        50.500
 133006891.763 5 103641723.77043  25310370.000    25310367.740          35.750
        21.500
 135067811.948 6 105247629.78845  25702549.500    25702547.140          39.500
        34.750
 10  6 20  0 15 30.0000000  0 13G14G12G30G04G32G16G02G23G20G29G31G13
                                G10
 132524835.772 6 103266096.46644  25218637.820    25218635.840          38.250
        29.500
 123173416.934 7  95979279.80746  23439120.000    23439116.800          46.750
        41.000
 112331087.958 8  87530719.71447  21375893.720    21375891.400          51.250
        47.750
 127181322.022 7  99102335.18745  24201799.820    24201797.720          44.250
        34.000
 133032335.291 6 103661563.79445  25315213.220    25315211.660          41.000
        31.000
 131291339.360 6 102304934.75545  24983911.980    24983909.400          40.000
        34.500
 118598647.268 8  92414509.76647  22568571.600    22568566.960          49.000
        43.000
 123150569.065 7  95961462.32146  23434774.420    23434769.240          46.500
        38.750
 131308081.659 6 102317971.23545  24987098.040    24987095.040          40.250
        33.000
 111277720.552 8  86709897.15648  21175443.120    21175440.700          50.750
        49.250
 108064817.711 8  84206334.19348  20564047.140    20564043.460          51.250
        50.500
 132903612.125 6 103561246.20644  25290716.460    25290714.480          38.250
        29.000
 134976612.605 6 105176565.42645  25685194.720    25685192.580          40.000
        33.250
 10  6 20  0 16  0.0000000  0 13G14G12G30G04G32G16G02G23G20G29G31G13
                                G10
 132645425.191 6 103360062.25345  25241585.180    25241583.140          38.500
        31.500
 123279520.076 7  96061957.60046  23459310.880    23459307.520          46.500
        40.000
 112386741.692 8  87574086.27847  21386484.280    21386481.880          51.000
        47.500
 127250760.498 7  99156443.09646  24215013.660    24215011.460          43.500
        37.250
 133137897.755 6 103743820.37245  25335301.180    25335299.560          41.000
        32.000
 131176758.549 6 102215650.99646  24962108.160    24962105.420          39.750
        36.500
 118615970.571 8  92428008.45247  22571868.120    22571863.520          49.000
        43.250
 123084213.506 7  95909756.69746  23422147.440    23422142.200          46.000
        38.750
 131387655.745 6 102379977.00245  25002240.360    25002237.480          39.750
        33.500
 111220844.039 8  86665577.81048  21164619.880    21164617.420          50.750
        49.250
 108063554.826 8  84205350.11948  20563806.780    20563803.140          51.250
        50.500
 132800558.841 6 103480944.92345  25271106.160    25271104.220          37.250
        33.750
 134885641.717 6 105105679.03245  25667883.400    25667881.400          41.500
        31.500
 10  6 20  0 16 30.0000000  0 13G14G12G30G04G32G16G02G23G20G29G31G13
                                G10
 132766050.647 6 103454056.13645  25264539.540    25264537.360          38.500
        32.500
 123385824.750 7  96144792.42246  23479539.980    23479536.600          46.250
        39.750
 112442793.748 8  87617763.21147  21397150.640    21397148.240          51.250
        47.750
 127320626.158 7  99210883.87445  24228308.680    24228306.240          43.000
        35.750
 133243665.962 6 103826237.20543  25355428.060    25355426.940          37.500
        23.750
 131062239.418 6 102126415.29345  24940315.960    24940312.900          40.000
        31.750
 118633917.066 8  92441992.76747  22575283.180    22575278.560          48.750
        43.000
 123018352.672 7  95858436.55646  23409614.440    23409609.300          46.250
        39.250
 131467560.099 6 102442239.71545  25017445.800    25017443.000          39.000
        34.250
 111164508.412 8  86621679.92448  21153899.540    21153897.100          50.750
        49.250
 108062938.805 8  84204870.09248  20563689.540    20563685.920          51.250
        50.500
 132697734.195 6 103400821.85945  25251539.060    25251537.300          37.000
        33.500
 134794901.650 6 105034972.51145  25650616.140    25650614.140          40.750
        34.250
 10  6 20  0 17  0.0000000  0 13G14G12G30G04G32G16G02G23G20G29G31G13
                                G10
 132886709.750 6 103548076.24146  25287500.100    25287497.900          38.500
        36.000
 123492329.463 7  96227783.11146  23499807.100    23499803.840          45.750
        40.750
 112499243.331 8  87661749.90347  21407892.680    21407890.240          51.250
        47.750
 127390917.110 7  99265656.05346  24241684.440    24241682.160          42.500
        36.500
 133349637.268 6 103908812.19245  25375593.620    25375592.360          36.750
        34.500
 130947784.301 6 102037229.49445  24918535.880    24918532.720          40.000
        33.750
 118652486.244 8  92456462.26647  22578816.700    22578812.140          48.750
        43.250
 122952989.119 7  95807503.83646  23397176.200    23397171.100          46.500
        38.750
 131547793.628 6 102504759.13145  25032713.980    25032710.860          40.000
        30.500
 111108715.550 8  86578204.97148  21143282.480    21143280.080          50.750
        49.250
 108062970.214 8  84204894.56048  20563695.540    20563691.960          51.250
        50.750
 132595141.441 6 103320879.47243  25232016.360    25232014.100          38.500
        22.500
 134704395.270 7 104964448.08645  25633393.340    25633391.080          42.000
        30.250
 10  6 20  0 17 30.0000000  0 13G14G12G30G04G32G16G02G23G20G29G31G13
                                G10
 133007398.472 6 103642119.35545  25310466.400    25310464.140          38.250
        34.750
 123599031.224 7  96310927.34346  23520111.700    23520108.620          45.750
        41.250
 112556088.237 8  87706044.63747  21418709.820    21418707.500          51.000
        47.500
 127461630.244 7  99320757.19945  24255140.580    24255138.460          43.000
        33.250
 133455807.555 6 103991542.44445  25395797.180    25395795.120          37.000
        34.250
 130833393.428 6 101948093.68945  24896767.980    24896765.120          40.250
        33.750
 118671676.598 8  92471415.80747  22582468.460    22582463.980          48.750
        43.250
 122888124.327 7  95756959.76946  23384832.960    23384827.660          46.000
        39.250
 131628353.043 6 102567532.73444  25048044.060    25048041.260          38.750
        29.250
 111053466.146 8  86535153.49248  21132768.920    21132766.440          50.750
        49.250
 108063648.613 8  84205423.18148  20563824.640    20563821.080          51.250
        50.750
 132492782.305 6 103241119.07345  25212538.120    25212535.620          39.500
        30.750
 134614124.675 6 104894107.34245  25616215.480    25616213.080          41.750
        31.500
 10  6 20  0 18  0.0000000  0 13G14G12G30G04G32G16G02G23G20G29G31G13
                                G10
 133128115.528 6 103736184.58245  25333437.900    25333435.560          37.250
        33.000
 123705929.311 7  96394224.53746  23540453.640    23540450.680          45.500
        41.000
 112613328.094 8  87750647.11747  21429602.180    21429599.840          51.000
        47.500
 127532764.062 7  99376186.15846  24268676.980    24268674.820          43.250
        36.000
 133562174.492 6 104074425.80344  25416038.200    25416036.440          37.750
        28.500
 130719069.408 6 101859009.98845  24875012.980    24875009.860          40.000
        34.500
 118691488.166 8  92486853.41747  22586238.440    22586233.960          48.750
        43.000
 122823761.241 7  95706806.70246  23372585.000    23372579.920          45.500
        40.000
 131709235.365 6 102630557.68045  25063435.560    25063432.600          39.500
        33.250
 110998762.336 8  86492527.12848  21122359.180    21122356.620          50.750
        49.500
 108064974.931 8  84206456.67648  20564077.000    20564073.480          51.250
        50.500
 132390660.299 6 103161543.48444  25193105.020    25193102.180          40.000
        26.500
 134524093.261 6 104823953.01645  25599083.100    25599080.620          40.500
        35.250
 10  6 20  0 18 30.0000000  0 13G14G12G30G04G32G16G02G23G20G29G31G13
                                G10
 133248857.627 6 103830269.32245  25356414.340    25356411.980          37.500
        33.250
 123813021.300 7  96477672.83046  23560832.560    23560829.640          45.500
        41.250
 112670961.137 8  87795555.97347  21440569.360    21440567.060          51.000
        47.500
 127604316.370 7  99431941.20346  24282293.060    24282290.880          44.250
        37.000
 133668734.656 6 104157459.67944  25436315.780    25436313.280          38.500
        26.000
 130604813.636 6 101769979.51145  24853270.800    24853268.040          40.000
        32.250
 118711919.917 8  92502774.29347  22590126.520    22590121.940          48.750
        43.250
 122759902.053 7  95657046.34946  23360432.960    23360427.940          47.000
        38.250
 131790438.078 6 102693832.29044  25078887.980    25078885.220          38.500
        29.000
 110944605.814 8  86450327.23848  21112053.560    21112050.980          51.000
        49.500
 108066949.293 8  84207995.14348  20564452.720    20564449.180          51.250
        50.750
 132288778.049 6 103082154.70445  25173717.520    25173714.240          40.750
        31.750
 134434303.652 6 104753987.10745  25581996.620    25581994.200          41.500
        32.750
 10  6 20  0 19  0.0000000  0 13G14G12G30G04G32G16G02G23G20G29G31G13
                                G10
 133369622.496 6 103924371.82545  25379395.280    25379392.440          37.500
        34.750
 123920305.091 7  96561270.56246  23581248.020    23581245.060          45.500
        41.500
 112728986.314 8  87840770.40547  21451611.180    21451608.880          51.000
        47.500
 127676284.775 7  99488020.47546  24295988.260    24295986.080          43.500
        36.500
 133775485.079 5 104240633.85843  25456629.600    25456627.460          33.750
        18.750
 130490627.859 6 101681003.52945  24831541.980    24831539.240          41.000
        30.500
 118732970.919 8  92519177.68647  22594132.520    22594127.800          48.750
        43.500
 122696548.672 7  95607680.12646  23348377.240    23348372.060          46.500
        38.500
 131871958.796 6 102757354.82245  25094401.180    25094398.180          39.500
        33.500
 110890997.986 8  86408554.91748  21101852.340    21101849.720          50.750
        49.500
 108069571.928 8  84210038.75648  20564951.780    20564948.240          51.250
        50.500
 132187138.435 6 103002954.97644  25154376.120    25154372.640          39.500
        24.750
 134344758.126 6 104684211.36045  25564956.600    25564954.280          41.250
        33.750
 10  6 20  0 19 30.0000000  0 13G14G12G30G04G32G16G02G23G20G29G31G13
                                G10
 133490403.934 6 104018487.24645  25402379.280    25402376.520          37.000
        31.250
 124027775.677 7  96645013.85946  23601699.080    23601696.020          45.500
        41.500
 112787399.191 8  87886286.92947  21462726.800    21462724.480          51.250
        47.500
 127748663.500 7  99544419.46246  24309761.540    24309759.120          44.000
        36.250
 133882419.120 5 104323958.99944  25476978.440    25476976.420          30.250
        27.000
 130376510.633 6 101592081.15745  24809826.260    24809823.560          41.750
        34.750
 118754637.428 8  92536060.69647  22598255.480    22598250.780          48.500
        43.250
 122633699.854 7  95558707.06546  23336417.420    23336412.500          47.000
        38.750
 131953791.326 6 102821120.27945  25109973.520    25109970.440          39.000
        33.500
 110837936.963 8  86367208.67148  21091755.100    21091752.540          50.750
        49.500
 108072839.557 8  84212584.95748  20565573.620    20565570.020          51.250
        50.500
 132085740.931 6 102923943.93845  25135080.920    25135077.920          39.750
        31.250
 134255456.216 6 104614625.49745  25547962.980    25547960.860          41.750
        32.750
 10  6 20  0 20  0.0000000  0 13G14G12G30G04G32G16G02G23G20G29G31G13
                                G10
 133611205.352 6 104112618.23645  25425367.020    25425364.940          36.500
        32.000
 124135437.378 7  96728906.08846  23622186.500    23622183.340          45.750
        40.750
 112846204.757 8  87932109.44547  21473917.180    21473914.880          51.000
        47.500
 127821456.501 7  99601141.29346  24323613.460    24323611.260          43.000
        37.000
 133989546.050 6 104407440.07445  25497363.080    25497362.240          37.000
        35.250
 130262469.230 6 101503217.83645  24788124.960    24788122.140          40.500
        30.000
 118776924.265 8  92553427.05847  22602496.380    22602491.800          48.500
        43.250
 122571363.916 7  95510133.63646  23324555.300    23324550.340          46.750
        38.750
 132035939.133 6 102885131.45645  25125605.860    25125602.960          38.750
        34.000
 110785430.503 8  86326294.57848  21081763.420    21081760.920          51.000
        49.500
 108076758.901 8  84215638.98648  20566319.520    20566315.860          51.250
        50.500
 131984594.176 6 102845128.33645  25115833.240    25115830.480          39.500
        30.500
 134166407.073 7 104545236.54245  25531017.460    25531015.320          43.000
        32.250
 10  6 20  0 20 30.0000000  0 12G14G12G30G04G16G02G23G20G29G31G13G10
 133732020.136 6 104206759.60745  25448357.340    25448354.920          36.000
        32.750
 124243284.093 7  96812942.48746  23642709.040    23642705.960          46.000
        40.000
 112905397.552 8  87978233.71047  21485181.220    21485178.920          51.000
        47.500
 127894657.600 7  99658181.09845  24337543.220    24337541.060          42.750
        34.500
 130148501.205 6 101414411.63045  24766437.480    24766434.560          41.000
        34.500
 118799826.673 8  92571273.08347  22606854.480    22606849.880          48.750
        43.250
 122509539.125 7  95461958.47746  23312790.440    23312785.320          47.000
        38.750
 132118395.584 6 102949383.23445  25141296.960    25141294.120          39.000
        31.500
 110733475.883 8  86285810.46648  21071876.740    21071874.320          50.750
        49.500
 108081325.567 8  84219197.40448  20567188.540    20567184.900          51.250
        50.500
 131883697.003 6 102766507.21144  25096633.040    25096630.500          41.000
        29.750
 134077609.362 6 104476043.50545  25514119.880    25514117.560          41.750
        32.500
 10  6 20  0 21  0.0000000  0 11G12G30G04G16G02G23G20G29G31G13G10
 124351314.200 7  96897121.80046  23663266.500    23663263.300          46.000
        38.750
 112964976.399 8  88024658.79947  21496518.720    21496516.340          51.000
        47.500
 127968264.535 7  99715537.15345  24351550.060    24351547.940          42.750
        31.500
 130034608.501 6 101325664.09545  24744764.320    24744761.220          40.250
        34.000
 118823344.266 8  92589598.47147  22611329.780    22611325.200          48.750
        42.750
 122448227.710 7  95414183.37046  23301123.300    23301118.100          47.000
        39.000
 132201158.031 6 103013873.34445  25157046.180    25157043.720          38.500
        33.500
 110682074.907 8  86245757.77448  21062095.440    21062093.000          50.750
        49.750
 108086540.115 8  84223260.66648  20568180.820    20568177.180          51.250
        50.500
 131783052.848 6 102688083.15344  25077481.300    25077478.440          41.000
        28.750
 133989065.882 7 104407048.60445  25497270.540    25497268.400          42.000
        34.500
 10  6 20  0 21 30.0000000  0 11G12G30G04G16G02G23G20G29G31G13G10
 124459527.961 7  96981444.20746  23683858.920    23683855.500          45.750
        38.250
 113024942.281 8  88071385.46947  21507929.820    21507927.420          51.000
        47.250
 128042277.277 7  99773209.43445  24365634.060    24365631.980          42.750
        35.500
 129920794.667 6 101236977.72445  24723106.340    24723103.060          41.250
        35.250
 118847478.071 8  92608404.02847  22615922.360    22615917.760          48.750
        43.000
 122387434.078 7  95366811.72746  23289554.660    23289549.420          47.250
        38.250
 132284225.938 6 103078601.55845  25172853.600    25172851.060          40.000
        33.750
 110631231.128 8  86206139.24548  21052420.200    21052417.720          51.000
        49.500
 108092404.971 8  84227830.66348  20569296.840    20569293.220          51.250
        50.500
 131682666.139 6 102609859.78745  25058378.280    25058375.300          40.250
        33.250
 133900781.559 7 104338255.61145  25480470.620    25480468.440          42.250
        34.000
 10  6 20  0 22  0.0000000  0 11G12G30G04G16G02G23G20G29G31G13G10
 124567920.081 7  97065905.61546  23704485.300    23704481.740          46.250
        38.750
 113085290.494 8  88118410.05647  21519413.700    21519411.280          51.000
        47.250
 128116690.066 7  99831193.43845  24379794.440    24379792.300          44.250
        34.250
 129807058.854 6 101148352.31745  24701463.180    24701460.020          40.000
        32.500
 118872223.978 8  92627686.53247  22620631.520    22620626.760          49.250
        42.750
 122327156.763 7  95319842.41846  23278084.300    23278079.100          47.000
        39.000
 132367593.515 6 103143563.35845  25188717.880    25188714.880          39.250
        31.000
 110580942.375 8  86166953.19748  21042850.600    21042848.080          50.750
        49.750
 108098916.448 8  84232904.51348  20570535.920    20570532.400          51.250
        50.500
 131582535.837 6 102531836.14044  25039323.920    25039321.300          40.500
        29.250
 133812755.540 7 104269663.89745  25463719.900    25463717.460          42.250
        31.750
 10  6 20  0 22 30.0000000  0 11G12G30G04G16G02G23G20G29G31G13G10
 124676492.619 7  97150507.59546  23725146.080    23725142.560          46.250
        39.000
 113146023.984 8  88165734.85647  21530970.880    21530968.480          51.000
        47.250
 128191504.800 7  99889490.67545  24394031.200    24394029.020          43.500
        35.500
 129693406.126 6 101059791.80045  24679835.720    24679832.740          40.500
        32.500
 118897585.068 8  92647448.41047  22625457.640    22625452.800          48.750
        43.000
 122267402.060 7  95273280.30346  23266713.300    23266708.000          47.500
        38.000
 132451262.088 6 103208759.86344  25204639.400    25204636.280          38.500
        26.750
 110531214.647 8  86128204.32348  21033387.740    21033385.240          51.000
        49.500
 108106078.880 8  84238485.59848  20571898.940    20571895.440          51.250
        50.500
 131482669.434 7 102454018.21344  25020319.980    25020317.040          42.250
        28.750
 133724995.103 6 104201279.19245  25447019.700    25447017.220          41.500
        33.000
 10  6 20  0 23  0.0000000  0 11G12G30G04G16G02G23G20G29G31G13G10
 124785241.200 7  97235246.74946  23745840.280    23745836.880          45.000
        39.750
 113207138.715 8  88213356.72447  21542600.540    21542598.300          51.000
        47.500
 128266716.613 7  99948097.27346  24408343.740    24408341.460          43.750
        37.250
 129579836.105 6 100971295.74045  24658224.040    24658221.000          41.000
        33.750
 118923557.613 8  92667686.75947  22630400.040    22630395.240          49.000
        42.750
 122208168.992 7  95227124.67846  23255441.600    23255436.220          47.250
        39.000
 132535226.117 6 103274186.60745  25220617.080    25220613.820          38.500
        30.250
 110482046.459 8  86089891.45148  21024031.340    21024028.860          51.000
        49.750
