     3.02           OBSERVATION DATA    M (MIXED)           RINEX VERSION / TYPE
BLANK OR G = GPS,  R = GLONASS,  E = GALILEO,  M = MIXED    COMMENT             
CHC Navigation      CHC Navigation      28-10-19 18:37      PGM / RUN BY / DATE 
GP008                                                       MARKER NAME         
GP008                                                       MARKER NUMBER       
CHC                 CHC                                     OBSERVER / AGENCY   
3206138             CHC I50             1.0.40              REC # / TYPE / VERS 
3206138             CHCI50                                  ANT # / TYPE        
 -2267702.2247  5009393.9291  3220938.7146                  APPROX POSITION XYZ 
        1.5410        0.0000        0.0000                  ANTENNA: DELTA H/E/N
G   12 C1C C2W C5I L1C L2W L5I S1C S2W S5I D1C D2W D5I      SYS / # / OBS TYPES 
R    8 C1C C2P L1C L2P S1C S2P D1C D2P                      SYS / # / OBS TYPES 
C   12 C1I C7I C6I L1I L7I L6I S1I S7I S6I D1I D7I D6I      SYS / # / OBS TYPES 
     5.000                                                  INTERVAL            
  2019    10    28     8    33   15.0000000     GPS         TIME OF FIRST OBS   
  2019    10    28     9     0   50.0000000     GPS         TIME OF LAST OBS   
     0                                                      RCV CLOCK OFFS APPL 
    18                                                      LEAP SECONDS        
HUACE ANT REFERENCEPOINT                                    COMMENT             
                                                            END OF HEADER       
> 2019 10 28 08 33 15.0000000  0 26
G10  20416358.155    20416359.291    20416413.778   107288688.924    83601602.880    80118392.441          51.708          45.374          54.935        1180.587         920.043         881.669  
G12  22081387.715    22081386.971           0.000   116038474.846    90419603.233           0.000          48.277          37.005           0.000         658.692         513.244           0.000  
G14  23850078.012    23850077.341           0.000   125333004.933    97662127.847           0.000          40.875          29.029           0.000        1848.675        1441.065           0.000  
G15  24784354.534    24784358.099           0.000   130242661.258   101487833.696           0.000          37.251          27.362           0.000       -2482.186       -1933.826           0.000  
G20  20099636.382    20099635.101           0.000   105624304.205    82304661.227           0.000          48.565          42.001           0.000       -1137.072        -885.919           0.000  
G21  23457227.651    23457227.789           0.000   123268551.254    96053475.495           0.000          40.827          29.736           0.000       -2688.626       -2095.443           0.000  
G24  22336244.575    22336246.333    22336303.274   117377757.402    91463201.855    87652452.270          43.659          34.847          52.746       -3027.445       -2358.602       -2260.638  
G25  22204551.795    22204554.990    22204611.435   116685708.391    90923954.986    87135667.129          43.385          33.678          51.782        2834.147        2208.846        2116.554  
G31  23514097.594    23514099.521           0.000   123567406.171    96286351.747           0.000          39.943          28.719           0.000        3229.433        2516.456           0.000  
G32  22011361.061    22011362.091    22011418.091   115670487.934    90132877.274    86377531.500          47.820          38.689          52.650        1512.472        1178.550        1129.557  
R01  23433536.827    23433556.987   125265681.732    97428966.687          40.948          33.451       -2650.575       -2061.693  
R02  19918735.734    19918752.760   106290188.367    82670215.707          53.884          46.964          96.590          75.170  
R03  21336344.649    21336363.466   114215118.533    88834062.472          50.581          49.489        2602.399        2024.245  
R10  22432986.377           0.000   119664627.990           0.000          44.861           0.000       -3831.687           0.000  
R12  20191550.806    20191568.692   107859632.646    83890902.142          52.953          48.609       -2248.960       -1749.068  
R13  19671345.565    19671363.442   105043876.640    81700876.154          46.384          40.212        2138.384        1663.339  
R14  23328460.726    23328483.911   124353829.020    96719743.491          45.420          41.184        4326.936        3365.303  
C06  36579764.622    36579776.374    36579764.352   190480433.126   147291600.264   154780953.036          48.430          48.169          46.577         125.475          97.081         101.962  
C07  38176127.464    38176140.606    38176126.973   198793115.558   153719498.272   161535688.948          44.014          46.555          44.564        1466.679        1134.224        1192.011  
C08  39755946.592    39755962.713    39755948.468   207019641.893   160080792.834   168220429.093          36.865          44.040          38.299       -1929.015       -1491.560       -1567.319  
C09  37117164.280    37117178.864    37117165.126   193278812.776   149455499.413   157054869.648          47.240          47.755          45.717          86.368          66.844          70.022  
C10  39662764.178    39662783.764    39662769.051   206534431.886   159705595.158   167826154.884          36.031          43.221          40.329        1417.210        1095.999        1151.744  
C13  38316564.725    38316585.406    38316570.646   199524406.883   154285011.292   162129952.076          44.434          44.707          43.443       -1918.705       -1483.806       -1559.073  
C16  36761663.483    36761681.555    36761667.165   191427629.269   148024059.967   155550644.035          49.366          48.422          45.390          97.479          75.382          79.248  
C25  23665904.236           0.000    23665908.236   123234575.457           0.000   100138205.017          48.361           0.000          47.702       -2380.201           0.000       -1933.978  
C32  22649290.940           0.000    22649298.249   117940799.892           0.000    95836592.900          51.968           0.000          51.299        1637.061           0.000        1330.255  
> 2019 10 28 08 33 20.0000000  0 26
G10  20415208.898    20415210.074    20415264.352   107282649.339    83596896.700    80113882.356          52.031          44.896          54.847        1179.043         918.984         880.480  
G12  22080734.988    22080735.237           0.000   116035046.585    90416931.878           0.000          47.230          36.125           0.000         656.364         512.010           0.000  
G14  23848291.991    23848291.108           0.000   125323619.327    97654814.381           0.000          41.898          31.513           0.000        1849.554        1442.099           0.000  
G15  24786688.931    24786692.279           0.000   130254929.198   101497393.132           0.000          36.861          27.575           0.000       -2481.315       -1934.367           0.000  
G20  20100692.532    20100691.175           0.000   105629854.558    82308986.171           0.000          48.716          41.501           0.000       -1139.114        -886.965           0.000  
G21  23459758.743    23459759.129           0.000   123281852.664    96063840.222           0.000          39.504          28.624           0.000       -2688.208       -2094.717           0.000  
G24  22339098.629    22339100.144    22339157.227   117392754.219    91474887.665    87663651.185          44.360          34.102          52.615       -3027.461       -2359.170       -2260.698  
G25  22201829.078    22201831.713    22201888.374   116671398.721    90912804.604    87124981.353          43.701          34.005          51.900        2833.423        2208.155        2115.899  
G31  23510998.481    23510999.576           0.000   123551120.974    96273661.985           0.000          40.266          27.639           0.000        3228.638        2516.200           0.000  
G32  22009895.292    22009896.137    22009952.130   115662784.206    90126874.361    86371778.710          48.076          38.743          52.626        1512.862        1178.979        1129.730  
R01  23435988.568    23436008.513   125278792.771    97439164.158          42.044          33.146       -2650.970       -2061.996  
R02  19918618.942    19918635.995   106289565.381    82669731.163          53.990          46.947          96.350          74.408  
R03  21333886.865    21333905.968   114201961.108    88823828.933          50.891          49.653        2603.970        2024.746  
R10  22436552.069           0.000   119683646.122           0.000          44.977           0.000       -3832.583           0.000  
R12  20193629.572    20193648.451   107870740.398    83899541.502          53.062          48.806       -2250.651       -1750.993  
R13  19669317.817    19669336.052   105033049.277    81692454.892          46.373          40.967        2135.386        1660.838  
R14  23324375.120    23324398.583   124332051.890    96702805.777          45.591          41.779        4327.093        3365.553  
C06  36579616.580    36579628.524    36579616.163   190479663.852   147291005.411   154780327.940          48.562          48.651          46.627         126.579          97.939         102.975  
C07  38174692.254    38174705.276    38174691.142   198785641.329   153713718.746   161529615.547          43.884          47.443          44.176        1467.210        1134.565        1192.275  
C08  39757771.587    39757787.769    39757773.657   207029146.492   160088142.408   168228152.429          37.915          43.962          37.859       -1928.384       -1490.999       -1567.153  
C09  37117053.866    37117068.448    37117054.737   193278239.448   149455056.093   157054403.765          47.134          48.700          45.503          87.398          67.523          71.008  
C10  39661376.725    39661396.226    39661381.678   206527205.578   159700007.388   167820282.970          36.767          43.314          40.803        1417.662        1096.187        1152.052  
C13  38318379.472    38318400.844    38318385.989   199533860.370   154292321.329   162137633.809          43.500          44.951          43.172       -1918.167       -1483.204       -1558.651  
C16  36761542.885    36761560.794    36761546.291   191427000.204   148023573.545   155550132.872          49.332          48.829          45.240          98.611          76.142          80.200  
C25  23668163.640           0.000    23668166.776   123246338.511           0.000   100147763.452          48.281           0.000          47.750       -2380.783           0.000       -1934.490  
C32  22647692.507           0.000    22647700.135   117932476.219           0.000    95829829.240          52.021           0.000          51.325        1636.839           0.000        1329.984  
> 2019 10 28 08 33 25.0000000  0 26
G10  20414061.618    20414062.684    20414116.879   107276619.796    83592198.358    80109379.776          52.117          45.076          55.011        1177.587         917.757         879.440  
G12  22080085.073    22080084.749           0.000   116031631.532    90414270.798           0.000          47.621          36.062           0.000         654.469         510.377           0.000  
G14  23846505.394    23846504.388           0.000   125314231.872    97647499.500           0.000          41.133          30.147           0.000        1850.612        1441.873           0.000  
G15  24789022.933    24789026.371           0.000   130267195.446   101506951.213           0.000          37.577          27.971           0.000       -2480.557       -1932.890           0.000  
G20  20101750.945    20101749.655           0.000   105635416.970    82313320.512           0.000          48.460          41.517           0.000       -1141.053        -889.411           0.000  
G21  23462289.689    23462290.395           0.000   123295153.405    96074204.370           0.000          40.200          29.961           0.000       -2687.778       -2094.333           0.000  
G24  22341952.901    22341954.107    22342011.006   117407752.861    91486574.909    87674851.446          44.003          33.705          52.366       -3027.486       -2358.666       -2260.509  
G25  22199107.278    22199109.213    22199166.125   116657094.600    90901658.569    87114299.750          44.428          34.210          51.757        2832.953        2207.857        2115.554  
G31  23507899.886    23507902.105           0.000   123534839.974    96260975.517           0.000          40.186          28.287           0.000        3228.617        2515.907           0.000  
G32  22008429.407    22008430.357    22008485.924   115655079.859    90120870.974    86366025.465          48.678          39.294          52.753        1513.670        1179.695        1130.230  
R01  23438442.024    23438462.372   125291908.296    97449365.051          41.885          34.937       -2651.362       -2061.824  
R02  19918503.703    19918520.918   106288949.431    82669252.082          54.055          46.893          94.528          73.824  
R03  21331428.504    21331448.145   114188802.529    88813594.482          49.621          49.502        2604.062        2025.472  
R10  22440118.061           0.000   119702670.195           0.000          45.235           0.000       -3833.005           0.000  
R12  20195711.735    20195730.686   107881863.400    83908192.703          53.044          49.298       -2254.087       -1752.934  
R13  19667293.386    19667311.756   105022238.604    81684046.594          46.169          40.973        2132.801        1658.865  
R14  23320290.316    23320313.931   124310275.936    96685868.986          45.522          42.278        4327.167        3365.969  
C06  36579468.085    36579479.595    36579467.880   190478890.220   147290407.193   154779699.309          48.501          48.575          46.892         128.271          99.192         104.108  
C07  38173257.047    38173269.693    38173255.545   198778165.966   153707938.338   161523541.199          44.086          47.000          44.267        1468.270        1135.125        1193.208  
C08  39759596.260    39759612.615    39759597.711   207038647.707   160095489.364   168235872.913          38.436          44.509          38.258       -1926.836       -1490.113       -1565.862  
C09  37116943.308    37116957.698    37116943.792   193277661.784   149454609.399   157053934.367          47.214          48.389          45.827          89.009          68.771          72.365  
C10  39659989.993    39660007.593    39659992.892   206519976.632   159694417.472   167814408.811          38.387          42.931          40.199        1418.605        1097.211        1153.191  
C13  38320194.781    38320215.926    38320201.386   199543312.533   154299630.334   162145314.454          43.621          44.680          43.296       -1917.323       -1482.563       -1557.763  
C16  36761421.524    36761439.211    36761424.783   191426366.833   148023083.780   155549618.223          49.522          48.927          45.366         100.211          77.462          81.282  
C25  23670423.531           0.000    23670426.111   123258106.252           0.000   100157325.713          48.442           0.000          47.842       -2380.897           0.000       -1934.840  
C32  22646094.530           0.000    22646101.984   117924155.150           0.000    95823067.696          52.052           0.000          51.305        1637.011           0.000        1330.153  
> 2019 10 28 08 33 30.0000000  0 26
G10  20412916.164    20412917.273    20412971.447   107270600.529    83587508.017    80104884.873          51.894          45.625          54.820        1176.074         916.052         878.174  
G12  22079437.813    22079437.106           0.000   116028229.872    90411620.140           0.000          47.431          37.432           0.000         652.256         507.525           0.000  
G14  23844718.734    23844718.011           0.000   125304842.796    97640183.362           0.000          40.872          28.956           0.000        1851.283        1442.812           0.000  
G15  24791356.310    24791359.792           0.000   130279460.127   101516508.127           0.000          35.435          28.191           0.000       -2479.113       -1931.349           0.000  
G20  20102811.926    20102810.515           0.000   105640991.699    82317664.453           0.000          48.749          42.234           0.000       -1142.905        -890.926           0.000  
G21  23464820.739    23464822.083           0.000   123308453.646    96084568.151           0.000          41.548          29.792           0.000       -2686.603       -2093.506           0.000  
G24  22344807.565    22344808.566    22344865.500   117422753.426    91498263.679    87686053.181          44.319          34.701          52.829       -3027.260       -2359.182       -2260.505  
G25  22196386.660    22196388.736    22196445.237   116642796.350    90890517.080    87103622.498          45.168          34.046          51.225        2832.428        2206.512        2114.944  
G31  23504802.259    23504804.962           0.000   123518563.438    96248292.555           0.000          39.513          27.984           0.000        3228.305        2515.689           0.000  
G32  22006963.273    22006964.517    22007019.819   115647375.170    90114867.326    86360271.956          48.082          39.824          52.870        1514.263        1179.324        1130.678  
R01  23440896.366    23440917.592   125305028.493    97459569.668          43.239          35.264       -2651.741       -2062.384  
R02  19918389.682    19918406.690   106288340.725    82668778.644          53.744          46.049          93.200          73.052  
R03  21328970.152    21328989.811   114175643.144    88803359.379          49.189          49.976        2603.937        2026.018  
R10  22443686.040           0.000   119721700.540           0.000          46.086           0.000       -3833.938           0.000  
R12  20197796.637    20197815.866   107893001.815    83916855.925          53.164          49.649       -2257.168       -1754.933  
R13  19665271.766    19665290.368   105011444.952    81675651.515          45.971          40.896        2129.838        1656.698  
R14  23316204.840    23316228.536   124288501.396    96668933.307          45.971          41.932        4327.721        3365.763  
C06  36579318.654    36579330.360    36579318.557   190478112.497   147289805.799   154779067.349          48.354          48.930          47.108         129.459         100.181         105.178  
C07  38171821.349    38171833.416    38171819.974   198770689.691   153702157.221   161517466.132          44.192          46.819          44.118        1468.828        1135.757        1193.343  
C08  39761420.442    39761436.984    39761422.381   207048145.817   160102833.903   168243590.967          38.049          45.229          39.114       -1925.867       -1489.380       -1565.164  
C09  37116831.544    37116845.967    37116832.388   193277080.021   149454159.544   157053461.624          47.064          49.164          45.957          90.310          69.707          73.632  
C10  39658600.818    39658619.261    39658604.247   206512745.170   159688825.684   167808532.695          37.698          44.245          40.381        1419.996        1097.884        1153.981  
C13  38322010.058    38322031.142    38322016.495   199552763.598   154306938.495   162152994.221          43.258          45.392          43.021       -1916.718       -1482.067       -1557.364  
C16  36761298.658    36761316.896    36761302.098   191425729.399   148022590.883   155549100.250          49.329          49.202          45.089         101.483          78.397          82.439  
C25  23672684.680           0.000    23672687.186   123269878.929           0.000   100166891.956          48.023           0.000          47.603       -2381.543           0.000       -1935.062  
C32  22644496.886           0.000    22644504.486   117915836.938           0.000    95816308.467          51.741           0.000          51.568        1636.836           0.000        1330.050  
> 2019 10 28 08 33 35.0000000  0 26
G10  20411772.430    20411773.489    20411827.667   107264590.467    83582824.851    80100396.827          52.142          44.907          55.003        1174.885         915.452         877.505  
G12  22078792.544    22078792.126           0.000   116024840.530    90408979.112           0.000          46.928          36.062           0.000         650.480         506.805           0.000  
G14  23842931.423    23842931.394           0.000   125295450.978    97632865.059           0.000          43.362          30.593           0.000        1852.564        1443.619           0.000  
G15  24793689.575    24793692.811           0.000   130291722.332   101526062.974           0.000          34.752          28.189           0.000       -2478.596       -1931.955           0.000  
G20  20103874.825    20103873.554           0.000   105646577.618    82322017.120           0.000          48.595          42.021           0.000       -1144.439        -891.544           0.000  
G21  23467351.630    23467353.271           0.000   123321752.292    96094930.699           0.000          41.687          29.825           0.000       -2685.667       -2092.644           0.000  
G24  22347662.471    22347663.712    22347720.566   117437754.924    91509953.146    87697255.611          44.382          34.330          53.298       -3026.413       -2358.657       -2260.121  
G25  22193666.648    22193668.922    22193725.427   116628502.829    90879379.283    87092948.779          44.953          34.192          51.107        2832.060        2206.385        2114.907  
G31  23501705.734    23501707.874           0.000   123502290.278    96235612.161           0.000          38.562          27.094           0.000        3228.242        2515.759           0.000  
G32  22005496.821    22005497.989    22005553.181   115639669.013    90108862.510    86354517.347          48.138          40.075          52.873        1515.337        1180.602        1131.601  
R01  23443352.085    23443372.513   125318152.147    97469776.962          43.992          35.475       -2651.658       -2062.235  
R02  19918277.001    19918293.007   106287738.095    82668309.942          54.328          46.359          93.380          72.596  
R03  21326510.983    21326531.223   114162481.578    88793122.623          49.475          50.268        2605.857        2026.803  
R10  22447254.528           0.000   119740735.837           0.000          46.492           0.000       -3834.160           0.000  
R12  20199883.855    20199903.469   107904154.420    83925530.189          53.755          49.442       -2258.533       -1756.620  
R13  19663253.608    19663272.398   105000667.123    81667268.775          45.699          40.562        2127.468        1654.624  
R14  23312120.642    23312143.595   124266727.285    96651997.968          46.332          42.101        4328.267        3366.431  
C06  36579168.310    36579179.889    36579168.266   190477329.563   147289200.397   154778431.147          48.524          48.896          47.062         131.277         101.458         106.627  
C07  38170385.450    38170397.711    38170383.787   198763211.446   153696374.563   161511389.440          44.595          46.618          44.093        1470.087        1136.740        1194.390  
C08  39763243.894    39763260.301    39763245.277   207057639.688   160110175.157   168251305.506          38.301          45.613          36.998       -1923.911       -1488.010       -1563.787  
C09  37116719.153    37116732.774    37116719.593   193276493.011   149453705.641   157052984.651          47.546          49.201          46.210          92.150          71.210          74.771  
C10  39657211.354    39657229.466    39657214.327   206505510.115   159683231.129   167802653.643          36.753          44.276          39.403        1421.230        1099.134        1155.149  
C13  38323824.809    38323845.466    38323831.094   199562212.466   154314244.960   162160672.205          43.612          45.591          42.902       -1915.332       -1481.165       -1556.360  
C16  36761175.527    36761193.234    36761178.836   191425086.781   148022093.978   155548578.062          49.361          49.110          45.247         103.185          79.744          83.924  
C25  23674946.184           0.000    23674948.496   123281655.370           0.000   100176461.303          48.098           0.000          47.404       -2381.547           0.000       -1935.182  
C32  22642899.771           0.000    22642907.155   117907520.466           0.000    95809550.654          51.787           0.000          51.496        1637.269           0.000        1330.311  
> 2019 10 28 08 33 40.0000000  0 26
G10  20410630.960    20410632.058    20410686.129   107258591.363    83578150.218    80095916.976          52.421          45.100          54.695        1173.576         914.321         876.288  
G12  22078150.417    22078149.743           0.000   116021465.303    90406349.061           0.000          47.753          37.014           0.000         648.527         505.229           0.000  
G14  23841144.175    23841144.236           0.000   125286058.244    97625546.024           0.000          42.586          29.755           0.000        1853.661        1444.177           0.000  
G15  24796022.384    24796026.346           0.000   130303983.572   101535617.272           0.000          33.707          27.797           0.000       -2477.285       -1930.694           0.000  
G20  20104940.226    20104938.977           0.000   105652176.489    82326379.876           0.000          48.197          41.907           0.000       -1146.158        -893.705           0.000  
G21  23469882.357    23469883.736           0.000   123335051.052    96105293.315           0.000          42.597          30.270           0.000       -2684.812       -2092.264           0.000  
G24  22350518.162    22350518.645    22350576.211   117452759.039    91521644.654    87708459.967          44.383          35.581          53.205       -3026.016       -2358.370       -2259.875  
G25  22190947.598    22190950.420    22191006.536   116614215.846    90868246.599    87082279.946          44.679          34.740          51.300        2831.581        2205.537        2114.389  
G31  23498609.799    23498612.042           0.000   123486022.221    96222935.850           0.000          39.072          26.840           0.000        3228.007        2515.424           0.000  
G32  22004030.449    22004031.976    22004086.775   115631963.158    90102857.950    86348762.979          48.518          39.498          53.532        1516.061        1180.977        1131.984  
R01  23445808.343    23445830.096   125331281.334    97479988.539          42.900          33.085       -2651.867       -2062.627  
R02  19918165.683    19918182.038   106287143.374    82667847.373          54.459          46.851          92.169          72.105  
R03  21324052.559    21324072.505   114149319.877    88782885.753          49.290          49.634        2606.191        2027.463  
R10  22450824.781           0.000   119759777.822           0.000          45.945           0.000       -3834.612           0.000  
R12  20201974.290    20201994.566   107915323.174    83934216.974          54.457          49.389       -2261.503       -1758.466  
R13  19661238.192    19661257.824   104989906.785    81658899.607          45.665          40.693        2124.657        1652.538  
R14  23308036.008    23308059.131   124244955.284    96635064.261          45.994          41.944        4328.657        3366.620  
C06  36579017.004    36579028.916    36579017.008   190476543.186   147288592.320   154777792.147          48.734          48.629          47.204         132.598         102.570         107.757  
C07  38168948.986    38168961.842    38168947.474   198755732.945   153690591.752   161505312.545          44.445          46.873          44.042        1470.793        1137.073        1195.454  
C08  39765065.549    39765083.019    39765067.759   207067131.011   160117514.429   168259017.969          36.654          43.657          38.349       -1923.080       -1486.751       -1562.698  
C09  37116605.435    37116619.577    37116606.028   193275902.569   149453249.058   157052504.855          47.489          48.129          45.598          93.377          72.343          76.028  
C10  39655821.556    39655839.686    39655824.059   206498273.256   159677635.135   167796773.140          38.146          43.448          39.916        1422.184        1099.899        1156.057  
C13  38325639.213    38325659.975    38325645.717   199571660.946   154321551.115   162168349.871          43.502          45.237          43.447       -1914.704       -1480.427       -1555.898  
C16  36761051.741    36761069.257    36761054.671   191424440.756   148021594.424   155548053.115          49.369          48.601          45.024         104.574          80.925          85.040  
C25  23677208.656           0.000    23677211.411   123293437.361           0.000   100186035.148          48.265           0.000          47.905       -2381.980           0.000       -1935.509  
C32  22641303.225           0.000    22641310.683   117899207.510           0.000    95802795.692          51.745           0.000          51.631        1637.246           0.000        1330.437  
> 2019 10 28 08 33 45.0000000  0 26
G10  20409491.433    20409492.598    20409546.683   107252603.001    83573483.959    80091445.132          52.605          45.074          55.144        1171.524         912.880         874.889  
G12  22077510.594    22077510.132           0.000   116018103.926    90403729.804           0.000          47.919          36.365           0.000         645.879         503.082           0.000  
G14  23839356.703    23839355.586           0.000   125276664.248    97618226.091           0.000          42.415          30.369           0.000        1853.714        1443.631           0.000  
G15  24798354.949    24798358.818           0.000   130316243.798   101545170.702           0.000          32.643          26.409           0.000       -2476.760       -1929.793           0.000  
G20  20106008.156    20106006.627           0.000   105657788.072    82330752.529           0.000          48.233          41.742           0.000       -1148.614        -894.795           0.000  
G21  23472413.010    23472414.041           0.000   123348349.656    96115655.847           0.000          43.147          29.846           0.000       -2684.578       -2091.775           0.000  
G24  22353373.560    22353374.528    22353431.488   117467765.401    91533337.938    87719666.012          44.985          35.903          53.648       -3026.586       -2358.285       -2259.952  
G25  22188229.913    22188233.106    22188289.348   116599935.181    90857118.795    87071615.802          44.107          33.440          51.300        2830.545        2205.292        2113.764  
G31  23495514.680    23495517.359           0.000   123469759.033    96210263.242           0.000          38.962          25.902           0.000        3227.057        2514.624           0.000  
G32  22002564.272    22002565.594    22002620.416   115624257.356    90096853.435    86343008.649          49.334          40.179          52.804        1516.055        1181.663        1132.182  
R01  23448265.158    23448286.875   125344415.516    97490204.018          41.861          34.887       -2652.727       -2063.237  
R02  19918055.800    19918071.958   106286556.483    82667390.888          54.202          47.147          90.136          70.969  
R03  21321594.012    21321613.832   114136157.820    88772648.584          50.172          50.081        2606.387        2027.763  
R10  22454395.144           0.000   119778826.288           0.000          45.979           0.000       -3835.622           0.000  
R12  20204068.119    20204088.843   107926507.672    83942916.029          54.111          48.911       -2264.583       -1760.776  
R13  19659226.941    19659245.418   104979163.797    81650543.977          45.777          40.457        2121.428        1649.908  
R14  23303951.957    23303974.767   124223185.293    96618132.098          45.227          41.993        4328.419        3366.552  
C06  36578865.579    36578877.239    36578865.493   190475753.101   147287981.376   154777150.141          48.360          49.407          47.140         133.437         103.260         108.446  
C07  38167512.417    38167525.081    38167511.180   198748254.016   153684808.544   161499235.306          44.251          47.097          43.918        1470.881        1137.490        1195.227  
C08  39766888.399    39766905.018    39766890.238   207076619.668   160124851.671   168266728.255          37.947          45.442          39.417       -1922.082       -1486.662       -1562.005  
C09  37116491.510    37116505.625    37116492.303   193275308.430   149452789.644   157052022.076          47.361          49.367          46.250          94.239          72.979          76.679  
C10  39654432.051    39654449.647    39654433.652   206491034.323   159672037.605   167790890.945          37.456          44.416          39.041        1423.740        1100.314        1156.619  
C13  38327453.201    38327474.349    38327459.951   199581108.710   154328856.727   162176026.942          43.803          45.647          43.408       -1914.443       -1480.288       -1555.601  
C16  36760926.726    36760944.344    36760929.838   191423791.064   148021092.034   155547525.192          49.344          49.170          45.175         105.504          81.540          85.708  
C25  23679471.945           0.000    23679474.999   123305224.681           0.000   100195613.302          47.784           0.000          47.942       -2382.838           0.000       -1936.303  
C32  22639707.570           0.000    22639715.133   117890897.835           0.000    95796043.399          51.837           0.000          51.446        1636.814           0.000        1330.031  
> 2019 10 28 08 33 50.0000000  0 26
G10  20408353.996    20408355.207    20408409.130   107246625.808    83568826.416    80086981.664          52.403          45.520          55.231        1170.354         911.868         873.989  
G12  22076873.981    22076872.957           0.000   116014756.890    90401121.729           0.000          48.030          36.557           0.000         643.966         502.046           0.000  
G14  23837568.726    23837568.080           0.000   125267269.456    97610905.445           0.000          40.575          29.905           0.000        1855.417        1445.461           0.000  
G15  24800688.087    24800691.669           0.000   130328503.436   101554723.572           0.000          33.755          26.479           0.000       -2475.803       -1925.810           0.000  
G20  20107078.597    20107077.216           0.000   105663412.809    82335135.446           0.000          48.074          42.041           0.000       -1150.175        -895.713           0.000  
G21  23474943.667    23474944.686           0.000   123361648.628    96126018.666           0.000          43.151          29.333           0.000       -2683.613       -2090.783           0.000  
G24  22356229.843    22356230.406    22356287.951   117482774.583    91545033.403    87730874.181          44.912          35.013          53.785       -3025.983       -2358.349       -2259.752  
G25  22185513.619    22185516.807    22185573.155   116585661.259    90845996.294    87060956.717          43.667          34.227          51.687        2830.154        2205.489        2113.453  
G31  23492420.939    23492423.359           0.000   123453501.164    96197594.853           0.000          39.261          27.712           0.000        3227.173        2514.816           0.000  
G32  22001098.068    22001099.149    22001154.071   115616552.062    90090849.311    86337254.695          48.937          40.747          53.201        1516.995        1182.314        1133.038  
R01  23450722.932    23450744.766   125357555.421    97500423.927          42.187          34.771       -2652.858       -2063.349  
R02  19917947.046    19917963.786   106285977.589    82666940.656          53.831          46.428          90.832          70.447  
R03  21319135.163    21319154.857   114122995.647    88762411.388          50.272          48.561        2608.174        2028.460  
R10  22457966.904           0.000   119797881.690           0.000          45.970           0.000       -3836.103           0.000  
R12  20206165.137    20206185.082   107937708.388    83951627.712          53.860          48.961       -2265.827       -1762.535  
R13  19657218.466    19657236.495   104968438.650    81642202.194          46.031          40.978        2118.878        1648.125  
R14  23299868.249    23299890.942   124201417.666    96601201.810          44.931          42.145        4328.992        3367.036  
C06  36578713.097    36578725.119    36578713.070   190474959.758   147287367.918   154776505.493          48.199          48.918          46.924         135.326         104.603         110.000  
C07  38166076.483    38166089.346    38166075.284   198740775.009   153679025.323   161493158.008          43.997          47.261          43.975        1472.245        1138.232        1196.245  
C08  39768710.038    39768727.023    39768712.394   207086105.991   160132187.086   168274436.693          37.512          44.292          39.533       -1920.081       -1485.225       -1560.902  
C09  37116376.500    37116390.784    37116377.041   193274711.025   149452327.713   157051536.653          46.915          48.972          45.945          96.140          74.330          78.080  
C10  39653041.645    39653059.694    39653044.184   206483793.862   159666438.828   167785007.491          38.100          44.007          39.585        1424.672        1101.375        1157.649  
C13  38329268.011    38329288.587    38329274.539   199590556.204   154336162.142   162183703.814          43.393          45.191          43.325       -1912.942       -1479.265       -1554.486  
C16  36760801.226    36760819.088    36760804.742   191423138.156   148020587.171   155546994.657          49.123          49.197          45.668         107.299          82.861          87.108  
C25  23681736.731           0.000    23681739.837   123317017.695           0.000   100205196.110          47.545           0.000          48.609       -2382.731           0.000       -1936.395  
C32  22638112.401           0.000    22638119.924   117882591.899           0.000    95789294.145          51.761           0.000          51.549        1637.135           0.000        1330.376  
> 2019 10 28 08 33 55.0000000  0 26
G10  20407218.920    20407220.116    20407274.147   107240660.298    83564177.963    80082526.897          52.342          45.058          54.592        1168.410         910.804         872.608  
G12  22076239.831    22076239.011           0.000   116011424.613    90398525.156           0.000          47.932          36.276           0.000         641.548         499.958           0.000  
G14  23835780.852    23835780.222           0.000   125257874.346    97603584.584           0.000          40.744          29.074           0.000        1855.866        1445.351           0.000  
G15  24803021.602    24803024.854           0.000   130340762.870   101564276.390           0.000          37.357          26.466           0.000       -2475.779       -1930.455           0.000  
G20  20108151.387    20108149.947           0.000   105669051.167    82339528.966           0.000          48.402          41.694           0.000       -1152.559        -897.635           0.000  
G21  23477474.311    23477475.224           0.000   123374948.361    96136382.075           0.000          42.368          28.985           0.000       -2683.498       -2090.930           0.000  
G24  22359086.652    22359087.268    22359144.906   117497786.954    91556731.362    87742084.729          44.602          35.104          53.395       -3026.224       -2357.847       -2259.894  
G25  22182798.874    22182802.071    22182858.507   116571394.605    90834879.411    87050303.029          43.859          33.704          50.829        2829.175        2204.626        2112.803  
G31  23489328.815    23489330.618           0.000   123437249.220    96184931.025           0.000          39.277          28.597           0.000        3226.381        2513.511           0.000  
G32  21999632.081    21999633.378    21999687.906   115608847.728    90084845.957    86331501.483          48.869          40.049          52.575        1517.345        1182.590        1133.235  
R01  23453182.059    23453203.830   125370701.399    97510648.590          42.500          35.498       -2653.779       -2064.160  
R02  19917840.468    19917856.689   106285407.589    82666497.321          53.846          45.656          89.636          69.370  
R03  21316676.645    21316696.134   114109834.069    88752174.605          50.412          48.225        2608.965        2028.639  
R10  22461541.056           0.000   119816944.592           0.000          45.598           0.000       -3837.164           0.000  
R12  20208265.450    20208285.306   107948925.792    83960352.348          53.913          49.104       -2268.718       -1764.805  
R13  19655212.937    19655231.378   104957731.774    81633874.623          46.030          40.928        2115.494        1645.555  
R14  23295784.693    23295808.488   124179652.925    96584273.746          45.790          42.080        4328.909        3366.750  
C06  36578560.205    36578572.082    36578560.271   190474163.612   147286752.294   154775858.564          48.467          49.055          46.984         136.326         105.531         110.780  
C07  38164640.301    38164653.074    38164638.936   198733296.454   153673242.441   161487081.067          44.052          47.489          44.210        1472.525        1138.667        1196.694  
C08  39770531.354    39770548.160    39770533.498   207095590.545   160139521.129   168282143.612          37.765          43.706          39.248       -1919.905       -1484.416       -1559.635  
C09  37116261.170    37116275.617    37116262.059   193274110.813   149451863.578   157051048.907          47.098          49.051          46.261          97.237          75.128          79.124  
C10  39651650.207    39651668.791    39651653.236   206476552.245   159660839.182   167779123.079          37.338          43.366          39.612        1425.376        1101.768        1158.357  
C13  38331082.146    38331102.514    38331088.843   199600003.952   154343467.736   162191380.892          43.422          45.018          42.922       -1912.503       -1479.005       -1554.057  
C16  36760675.289    36760692.733    36760678.623   191422482.487   148020080.165   155546461.875          49.053          48.976          45.448         108.432          83.912          88.039  
C25  23684002.486           0.000    23684005.691   123328816.913           0.000   100214783.926          47.630           0.000          48.469       -2383.462           0.000       -1936.571  
C32  22636518.214           0.000    22636525.691   117874290.143           0.000    95782548.295          51.658           0.000          51.390        1636.929           0.000        1330.181  
> 2019 10 28 08 34  0.0000000  0 26
G10  20406086.089    20406087.410    20406141.502   107234707.487    83559539.408    80078081.606          52.224          45.778          54.893        1166.658         909.533         871.220  
G12  22075608.446    22075607.935           0.000   116008108.235    90395940.985           0.000          47.766          36.742           0.000         638.862         498.621           0.000  
G14  23833993.224    23833992.024           0.000   125248479.970    97596264.297           0.000          42.493          30.342           0.000        1856.104        1446.441           0.000  
G15  24805355.161    24805357.412           0.000   130353023.072   101573829.798           0.000          38.748          25.941           0.000       -2474.693       -1927.405           0.000  
G20  20109227.329    20109225.871           0.000   105674704.182    82343933.908           0.000          48.518          41.854           0.000       -1154.809        -898.825           0.000  
G21  23480005.693    23480006.336           0.000   123388249.917    96146746.919           0.000          44.488          30.930           0.000       -2683.154       -2090.097           0.000  
G24  22361944.134    22361944.807    22362002.366   117512803.643    91568432.684    87753298.497          44.587          35.070          53.566       -3026.449       -2357.678       -2260.213  
G25  22180085.901    22180088.732    22180144.974   116557136.221    90823768.992    87039655.561          44.623          34.685          51.342        2827.961        2203.906        2111.888  
G31  23486237.646    23486239.446           0.000   123421004.059    96172272.420           0.000          39.269          26.605           0.000        3225.855        2512.784           0.000  
G32  21998166.422    21998167.762    21998222.237   115601145.428    90078844.177    86325749.794          49.287          40.065          52.669        1517.481        1182.947        1133.060  
R01  23455642.596    23455664.501   125383854.334    97520878.652          43.079          34.873       -2654.439       -2064.189  
R02  19917735.210    19917751.503   106284847.044    82666061.327          53.722          45.824          88.442          68.487  
R03  21314218.391    21314238.085   114096674.102    88741939.069          50.778          48.214        2609.448        2029.024  
R10  22465116.089           0.000   119836015.778           0.000          45.583           0.000       -3838.157           0.000  
R12  20210369.133    20210388.702   107960160.908    83969090.780          53.800          49.126       -2271.577       -1767.049  
R13  19653211.664    19653231.296   104947044.319    81625562.167          45.760          40.680        2112.461        1643.036  
R14  23291702.458    23291726.001   124157892.084    96567348.735          46.301          42.731        4328.645        3366.452  
C06  36578407.002    36578419.364    36578406.915   190473365.720   147286135.313   154775210.209          48.404          49.091          46.979         137.169         106.265         111.612  
C07  38163204.395    38163217.190    38163202.610   198725819.311   153667460.642   161481005.282          44.003          47.145          44.233        1472.836        1138.944        1196.869  
C08  39772351.598    39772369.532    39772355.008   207105074.211   160146854.495   168289849.877          37.284          43.886          38.404       -1919.384       -1483.913       -1559.566  
C09  37116145.369    37116159.971    37116146.350   193273508.862   149451398.124   157050559.795          46.878          49.123          46.125          98.096          75.827          79.701  
C10  39650260.207    39650277.756    39650262.152   206469310.455   159655239.385   167773238.586          38.541          43.220          39.168        1425.769        1102.759        1158.495  
C13  38332896.523    38332917.788    38332903.506   199609452.953   154350774.303   162199058.982          42.962          45.106          43.189       -1912.508       -1478.735       -1554.059  
C16  36760548.812    36760566.795    36760552.307   191421825.109   148019571.839   155545927.697          48.968          48.838          45.219         109.129          84.427          88.718  
C25  23686269.434           0.000    23686273.022   123340623.334           0.000   100224377.623          47.521           0.000          48.187       -2384.290           0.000       -1937.411  
C32  22634924.808           0.000    22634932.530   117865993.621           0.000    95775806.705          51.387           0.000          51.254        1636.378           0.000        1329.549  
> 2019 10 28 08 34  5.0000000  0 26
G10  20404955.783    20404957.008    20405011.237   107228767.494    83554910.845    80073645.906          52.093          45.799          54.688        1165.471         908.283         870.252  
G12  22074980.184    22074979.809           0.000   116004807.823    90393369.230           0.000          47.129          35.945           0.000         637.204         496.372           0.000  
G14  23832205.739    23832204.925           0.000   125239086.411    97588944.646           0.000          41.286          29.278           0.000        1857.632        1447.253           0.000  
G15  24807688.181    24807690.663           0.000   130365284.344   101583384.077           0.000          37.782          27.088           0.000       -2473.746       -1928.498           0.000  
G20  20110305.826    20110304.461           0.000   105680371.926    82348350.328           0.000          48.393          41.924           0.000       -1156.272        -900.972           0.000  
G21  23482536.884    23482537.959           0.000   123401553.337    96157113.179           0.000          42.129          30.469           0.000       -2682.204       -2090.510           0.000  
G24  22364801.933    22364803.236    22364860.786   117527824.808    91580137.482    87764515.576          43.465          34.128          53.376       -3026.098       -2358.302       -2259.708  
G25  22177374.595    22177377.020    22177433.263   116542886.256    90812665.118    87029014.371          44.768          34.559          51.457        2827.856        2203.858        2111.636  
G31  23483147.372    23483149.148           0.000   123404765.996    96159619.438           0.000          38.473          29.238           0.000        3225.490        2512.955           0.000  
G32  21996701.272    21996702.951    21996757.046   115593445.234    90072844.017    86319999.642          49.549          40.430          52.390        1518.540        1183.348        1133.888  
R01  23458104.669    23458126.180   125397014.636    97531114.437          44.408          34.730       -2654.390       -2064.510  
R02  19917632.259    19917648.274   106284296.655    82665633.258          53.862          46.293          87.081          68.022  
R03  21311760.644    21311780.115   114083515.766    88731704.791          50.351          49.156        2609.123        2029.797  
R10  22468692.758           0.000   119855095.420           0.000          46.208           0.000       -3838.395           0.000  
R12  20212476.484    20212495.059   107971413.875    83977843.087          53.711          49.240       -2274.607       -1768.743  
R13  19651213.952    19651232.876   104936376.417    81617264.921          46.191          40.610        2109.945        1641.000  
R14  23287621.248    23287644.542   124136135.325    96550426.895          45.637          43.010        4329.435        3367.219  
C06  36578253.328    36578265.696    36578253.414   190472566.142   147285517.034   154774560.491          48.391          49.541          46.756         138.926         107.430         112.916  
C07  38161768.737    38161781.522    38161767.417   198718343.747   153661680.078   161474930.792          43.861          47.539          44.199        1474.034        1139.560        1197.610  
C08  39774173.219    39774190.050    39774176.337   207114557.136   160154187.277   168297555.514          37.253          44.146          39.675       -1918.011       -1482.952       -1558.185  
C09  37116029.424    37116043.923    37116030.384   193272905.218   149450931.337   157050069.292          47.090          49.177          46.113          99.789          77.104          80.982  
C10  39648867.991    39648886.672    39648871.441   206462068.683   159649639.628   167767354.060          36.070          43.928          38.389        1427.332        1103.393        1160.003  
C13  38334711.669    38334732.359    38334718.325   199618903.303   154358081.912   162206738.134          43.325          45.050          43.120       -1911.318       -1478.333       -1553.001  
C16  36760422.366    36760439.722    36760425.851   191421166.094   148019062.263   155545392.206          48.988          49.032          45.130         110.876          85.604          89.950  
C25  23688537.951           0.000    23688541.892   123352437.050           0.000   100233977.224          46.941           0.000          48.658       -2384.718           0.000       -1937.596  
C32  22633332.548           0.000    22633340.743   117857702.453           0.000    95769069.447          51.337           0.000          51.426        1636.533           0.000        1329.890  
> 2019 10 28 08 34 10.0000000  0 26
G10  20403827.522    20403829.104    20403883.178   107222839.203    83550291.395    80069218.936          52.321          45.699          54.715        1163.049         906.026         868.465  
G12  22074355.047    22074354.743           0.000   116001522.196    90390809.003           0.000          47.756          36.177           0.000         634.209         494.127           0.000  
G14  23830418.146    23830417.479           0.000   125229692.520    97581624.761           0.000          41.142          29.382           0.000        1857.354        1446.973           0.000  
G15  24810021.892    24810023.789           0.000   130377545.489   101592938.160           0.000          37.721          26.519           0.000       -2473.318       -1926.699           0.000  
G20  20111387.099    20111385.450           0.000   105686053.291    82352777.368           0.000          48.620          41.911           0.000       -1159.046        -903.288           0.000  
G21  23485068.557    23485069.055           0.000   123414857.557    96167480.075           0.000          41.723          29.212           0.000       -2682.292       -2090.269           0.000  
G24  22367660.813    22367662.062    22367719.728   117542849.194    91591844.805    87775735.096          43.737          34.041          53.340       -3026.558       -2358.297       -2260.188  
G25  22174664.327    22174666.843    22174722.629   116528643.582    90801566.937    87018378.612          44.748          35.019          51.098        2826.471        2202.345        2110.627  
G31  23480058.526    23480060.055           0.000   123388533.708    96146970.924           0.000          39.079          26.207           0.000        3224.425        2511.961           0.000  
G32  21995236.137    21995237.446    21995291.896   115585746.024    90066844.633    86314250.223          48.836          40.480          52.448        1518.251        1182.735        1133.804  
R01  23460567.557    23460589.597   125410180.935    97541354.874          43.825          35.224       -2655.635       -2065.341  
R02  19917530.365    19917547.392   106283754.751    82665211.755          53.997          46.778          85.467          66.646  
R03  21309302.612    21309321.966   114070357.947    88721470.951          50.452          49.037        2609.389        2029.788  
R10  22472270.966           0.000   119874182.453           0.000          47.310           0.000       -3839.991           0.000  
R12  20214586.162    20214604.299   107982683.490    83986608.345          53.141          48.923       -2277.867       -1771.261  
R13  19649219.570    19649238.414   104925726.895    81608981.966          45.873          40.930        2106.180        1638.114  
R14  23283540.121    23283562.823   124114381.461    96533507.301          45.929          42.507        4328.625        3366.725  
C06  36578099.711    36578111.949    36578099.089   190471763.793   147284896.605   154773908.524          48.586          49.563          46.965         139.524         107.884         113.241  
C07  38160333.486    38160345.890    38160331.556   198710868.655   153655899.878   161468856.672          44.119          47.236          43.970        1473.644        1139.528        1197.503  
C08  39775993.820    39776010.683    39775997.300   207124038.259   160161518.692   168305259.693          37.310          43.801          39.523       -1917.681       -1482.796       -1558.013  
C09  37115913.192    37115927.410    37115914.286   193272298.816   149450462.430   157049576.529          47.145          48.557          45.899         100.314          77.637          81.518  
C10  39647477.383    39647495.473    39647480.782   206454825.781   159644038.993   167761468.686          37.365          43.354          39.216        1427.750        1103.814        1159.738  
C13  38336526.294    38336546.859    38336533.436   199628353.836   154365389.647   162214417.474          43.444          45.018          42.773       -1911.294       -1477.801       -1553.207  
C16  36760295.462    36760312.881    36760298.754   191420504.326   148018550.533   155544854.471          49.148          49.191          45.221         111.391          86.191          90.489  
C25  23690807.539           0.000    23690812.050   123364256.932           0.000   100243581.859          46.608           0.000          48.548       -2385.752           0.000       -1938.778  
C32  22631741.199           0.000    22631748.956   117849415.506           0.000    95762335.632          51.512           0.000          51.264        1635.626           0.000        1329.125  
> 2019 10 28 08 34 15.0000000  0 26
G10  20402702.108    20402703.660    20402757.785   107216924.852    83545682.816    80064802.371          52.326          44.524          54.677        1160.797         904.410         866.705  
G12  22073733.160    22073733.213           0.000   115998253.603    90388262.058           0.000          47.423          35.261           0.000         631.485         491.645           0.000  
G14  23828630.778    23828629.868           0.000   125220300.583    97574306.398           0.000          40.274          29.179           0.000        1857.255        1447.603           0.000  
G15  24812356.079    24812357.140           0.000   130389808.692   101602493.935           0.000          38.594          28.441           0.000       -2473.443       -1926.699           0.000  
G20  20112471.145    20112469.393           0.000   105691750.501    82357216.753           0.000          48.775          40.807           0.000       -1161.724        -905.514           0.000  
G21  23487600.793    23487602.224           0.000   123428164.761    96177849.288           0.000          42.367          29.296           0.000       -2682.353       -2090.187           0.000  
G24  22370520.328    22370522.556    22370579.797   117557878.972    91603556.301    87786958.624          43.090          33.413          53.199       -3027.152       -2358.560       -2260.619  
G25  22171955.686    22171957.873    22172014.088   116514410.433    90790476.195    87007749.983          44.622          33.933          50.901        2825.079        2201.592        2109.706  
G31  23476970.926    23476972.907           0.000   123372309.530    96134328.799           0.000          38.882          28.206           0.000        3223.037        2511.070           0.000  
G32  21993771.616    21993773.078    21993827.448   115578050.027    90060847.762    86308503.228          49.167          39.498          52.401        1518.164        1183.109        1133.559  
R01  23463032.322    23463054.093   125423355.558    97551601.814          42.742          33.968       -2656.660       -2066.326  
